{
 "tennisCourts": [
    {
      "name": "Denver - Berkeley Park",
      "address": "4500 W 46th Ave., Denver CO 80212",
      "tennisCourts_courtIcon": "https://www.tennisdenver.com/assets/new_layout/courts-icon.jpg",
      "numberOfCourts": "8 Courts",
      "Latitude": 39.780392,
      "Longitude": -105.045118,
      "Accuracy Score": 1,
      "Accuracy Type": "range_interpolation",
      "Street": "W 46th Ave",
      "City": "Denver",
      "State": "CO",
      "County": "Denver County",
      "Zip": 80212,
      "Country": "US"
    },
    {
      "name": "Denver - City Park",
      "address": "2450 23rd Ave, Denver CO 80205",
      "tennisCourts_courtIcon": "https://www.tennisdenver.com/assets/new_layout/courts-icon.jpg",
      "numberOfCourts": "14 Courts",
      "Latitude": 39.750671,
      "Longitude": -104.958161,
      "Accuracy Score": 0.8,
      "Accuracy Type": "range_interpolation",
      "Street": "E 23rd Ave",
      "City": "Denver",
      "State": "CO",
      "County": "Denver County",
      "Zip": 80205,
      "Country": "US"
    },
    {
      "name": "Denver - Cole MS",
      "address": "3240 Humboldt St., Denver CO 80205",
      "tennisCourts_courtIcon": "https://www.tennisdenver.com/assets/new_layout/courts-icon.jpg",
      "numberOfCourts": "3 Courts",
      "Latitude": 39.76261,
      "Longitude": -104.969665,
      "Accuracy Score": 0.9,
      "Accuracy Type": "rooftop",
      "Street": "N Humboldt St",
      "City": "Denver",
      "State": "CO",
      "County": "Denver County",
      "Zip": 80205,
      "Country": "US"
    },
    {
      "name": "Denver - Congress Park",
      "address": "Josephine St & E 9th Ave, Denver CO 80206",
      "tennisCourts_courtIcon": "https://www.tennisdenver.com/assets/new_layout/courts-icon.jpg",
      "numberOfCourts": "8 Courts",
      "Latitude": 39.730506,
      "Longitude": -104.959197,
      "Accuracy Score": 1,
      "Accuracy Type": "intersection",
      "Street": "E 9th Ave",
      "City": "Denver",
      "State": "CO",
      "County": "Denver County",
      "Zip": 80206,
      "Country": "US"
    },
    {
      "name": "Denver - Curtis Park",
      "address": "32nd St., Denver CO 80205",
      "tennisCourts_courtIcon": "https://www.tennisdenver.com/assets/new_layout/courts-icon.jpg",
      "numberOfCourts": "1 Courts",
      "Latitude": 39.762929,
      "Longitude": -104.976213,
      "Accuracy Score": 1,
      "Accuracy Type": "street_center",
      "Street": "32nd St",
      "City": "Denver",
      "State": "CO",
      "County": "Denver County",
      "Zip": 80205,
      "Country": "US"
    },
    {
      "name": "Denver - Denver North HS",
      "address": "2960 N Speer Blvd., Denver CO 80211",
      "tennisCourts_courtIcon": "https://www.tennisdenver.com/assets/new_layout/courts-icon.jpg",
      "numberOfCourts": "6 Courts",
      "Latitude": 39.759878,
      "Longitude": -105.022905,
      "Accuracy Score": 1,
      "Accuracy Type": "rooftop",
      "Street": "N Speer Blvd",
      "City": "Denver",
      "State": "CO",
      "County": "Denver County",
      "Zip": 80211,
      "Country": "US"
    },
    {
      "name": "Denver - Denver Tennis Club",
      "address": "400 Forest St., Denver CO 80220",
      "tennisCourts_courtIcon": "https://www.tennisdenver.com/assets/new_layout/courts-icon.jpg",
      "numberOfCourts": "12 Courts",
      "Latitude": 39.723018,
      "Longitude": -104.927205,
      "Accuracy Score": 1,
      "Accuracy Type": "range_interpolation",
      "Street": "Forest St",
      "City": "Denver",
      "State": "CO",
      "County": "Denver County",
      "Zip": 80220,
      "Country": "US"
    },
    {
      "name": "Denver - Greenway Park",
      "address": "Montview Blvd & Syracuse St., Denver CO 80207",
      "tennisCourts_courtIcon": "https://www.tennisdenver.com/assets/new_layout/courts-icon.jpg",
      "numberOfCourts": "4 Courts",
      "Latitude": 39.74744,
      "Longitude": -104.898767,
      "Accuracy Score": 0.9,
      "Accuracy Type": "intersection",
      "Street": "Montview Blvd",
      "City": "Denver",
      "State": "CO",
      "County": "Denver County",
      "Zip": 80220,
      "Country": "US"
    },
    {
      "name": "Denver - Greenway Park at Stapleton",
      "address": "Syracuse Street & Montview Boulevard, Denver CO 80220",
      "tennisCourts_courtIcon": "https://www.tennisdenver.com/assets/new_layout/courts-icon.jpg",
      "numberOfCourts": "4 Courts",
      "Latitude": 39.74744,
      "Longitude": -104.898767,
      "Accuracy Score": 1,
      "Accuracy Type": "intersection",
      "Street": "Montview Blvd",
      "City": "Denver",
      "State": "CO",
      "County": "Denver County",
      "Zip": 80220,
      "Country": "US"
    },
    {
      "name": "Denver - Havana Heights Park",
      "address": "11085 E Warren Ave., Denver CO 80014",
      "tennisCourts_courtIcon": "https://www.tennisdenver.com/assets/new_layout/courts-icon.jpg",
      "numberOfCourts": "2 Courts",
      "Latitude": 39.676744,
      "Longitude": -104.859093,
      "Accuracy Score": 1,
      "Accuracy Type": "range_interpolation",
      "Street": "E Warren Ave",
      "City": "Aurora",
      "State": "CO",
      "County": "Arapahoe County",
      "Zip": 80014,
      "Country": "US"
    },
    {
      "name": "Denver - La Alma Rec Center",
      "address": "1325 W 11th Ave., Denver CO 80204",
      "tennisCourts_courtIcon": "https://www.tennisdenver.com/assets/new_layout/courts-icon.jpg",
      "numberOfCourts": "2 Courts",
      "Latitude": 39.734586,
      "Longitude": -105.004154,
      "Accuracy Score": 1,
      "Accuracy Type": "rooftop",
      "Street": "W 11th Ave",
      "City": "Denver",
      "State": "CO",
      "County": "Denver County",
      "Zip": 80204,
      "Country": "US"
    },
    {
      "name": "Denver - Lindsley Park",
      "address": "E 12th Ave & Cherry St, Denver CO 80220",
      "tennisCourts_courtIcon": "https://www.tennisdenver.com/assets/new_layout/courts-icon.jpg",
      "numberOfCourts": "4 Courts",
      "Latitude": 39.734681,
      "Longitude": -104.933844,
      "Accuracy Score": 1,
      "Accuracy Type": "intersection",
      "Street": "Cherry St",
      "City": "Denver",
      "State": "CO",
      "County": "Denver County",
      "Zip": 80220,
      "Country": "US"
    },
    {
      "name": "Denver - Manual HS",
      "address": "1700 E 28th Ave., Denver CO 80205",
      "tennisCourts_courtIcon": "https://www.tennisdenver.com/assets/new_layout/courts-icon.jpg",
      "numberOfCourts": "1 Courts",
      "Latitude": 39.756899,
      "Longitude": -104.968232,
      "Accuracy Score": 1,
      "Accuracy Type": "rooftop",
      "Street": "E 28th Ave",
      "City": "Denver",
      "State": "CO",
      "County": "Denver County",
      "Zip": 80205,
      "Country": "US"
    },
    {
      "name": "Denver - Martin Luther King Park",
      "address": "Newport Street & E. 38th Avenue, Denver CO 80207",
      "tennisCourts_courtIcon": "https://www.tennisdenver.com/assets/new_layout/courts-icon.jpg",
      "numberOfCourts": "4 Courts",
      "Latitude": 39.769263,
      "Longitude": -104.909465,
      "Accuracy Score": 1,
      "Accuracy Type": "intersection",
      "Street": "E 38th Ave",
      "City": "Denver",
      "State": "CO",
      "County": "Denver County",
      "Zip": 80207,
      "Country": "US"
    },
    {
      "name": "Denver - Montbello Central Park",
      "address": "5000 Crown Blvd., Denver CO 80239",
      "tennisCourts_courtIcon": "https://www.tennisdenver.com/assets/new_layout/courts-icon.jpg",
      "numberOfCourts": "4 Courts",
      "Latitude": 39.786298,
      "Longitude": -104.829739,
      "Accuracy Score": 1,
      "Accuracy Type": "range_interpolation",
      "Street": "Crown Blvd",
      "City": "Denver",
      "State": "CO",
      "County": "Denver County",
      "Zip": 80239,
      "Country": "US"
    },
    {
      "name": "Denver - Montbello HS",
      "address": "5000 Crown Blvd., Denver CO 80239",
      "tennisCourts_courtIcon": "https://www.tennisdenver.com/assets/new_layout/courts-icon.jpg",
      "numberOfCourts": "4 Courts",
      "Latitude": 39.786298,
      "Longitude": -104.829739,
      "Accuracy Score": 1,
      "Accuracy Type": "range_interpolation",
      "Street": "Crown Blvd",
      "City": "Denver",
      "State": "CO",
      "County": "Denver County",
      "Zip": 80239,
      "Country": "US"
    },
    {
      "name": "Denver - Pinehurst Country Club",
      "address": "6255 W Quincy Ave., Denver CO 80235",
      "tennisCourts_courtIcon": "https://www.tennisdenver.com/assets/new_layout/courts-icon.jpg",
      "numberOfCourts": "16 Courts",
      "Latitude": 39.639347,
      "Longitude": -105.069455,
      "Accuracy Score": 1,
      "Accuracy Type": "rooftop",
      "Street": "W Quincy Ave",
      "City": "Denver",
      "State": "CO",
      "County": "Denver County",
      "Zip": 80235,
      "Country": "US"
    },
    {
      "name": "Denver - Rocky Mtn. Lake Park",
      "address": "3450 W 46th Ave., Denver CO 80211",
      "tennisCourts_courtIcon": "https://www.tennisdenver.com/assets/new_layout/courts-icon.jpg",
      "numberOfCourts": "2 Courts",
      "Latitude": 39.779976,
      "Longitude": -105.032574,
      "Accuracy Score": 1,
      "Accuracy Type": "rooftop",
      "Street": "W 46th Ave",
      "City": "Denver",
      "State": "CO",
      "County": "Denver County",
      "Zip": 80211,
      "Country": "US"
    },
    {
      "name": "Denver - Skyland Park",
      "address": "3334 Holly St., Denver CO 80207",
      "tennisCourts_courtIcon": "https://www.tennisdenver.com/assets/new_layout/courts-icon.jpg",
      "numberOfCourts": "4 Courts",
      "Latitude": 39.764119,
      "Longitude": -104.922146,
      "Accuracy Score": 1,
      "Accuracy Type": "range_interpolation",
      "Street": "Holly St",
      "City": "Denver",
      "State": "CO",
      "County": "Denver County",
      "Zip": 80207,
      "Country": "US"
    },
    {
      "name": "Denver - Sloan's Lake Park North",
      "address": "W. 26th Avenue & Utica Street , Denver CO 80212",
      "tennisCourts_courtIcon": "https://www.tennisdenver.com/assets/new_layout/courts-icon.jpg",
      "numberOfCourts": "4 Courts",
      "Latitude": 39.768286,
      "Longitude": -105.049338,
      "Accuracy Score": 0.3,
      "Accuracy Type": "place",
      "Street": "",
      "City": "Denver",
      "State": "CO",
      "County": "Denver County",
      "Zip": 80212,
      "Country": "US"
    },
    {
      "name": "Denver - Sloan's Lake Park South",
      "address": "4200 W 17th Ave., Denver CO 80204",
      "tennisCourts_courtIcon": "https://www.tennisdenver.com/assets/new_layout/courts-icon.jpg",
      "numberOfCourts": "4 Courts",
      "Latitude": 39.743057,
      "Longitude": -105.041949,
      "Accuracy Score": 1,
      "Accuracy Type": "rooftop",
      "Street": "W 17th Ave",
      "City": "Denver",
      "State": "CO",
      "County": "Denver County",
      "Zip": 80204,
      "Country": "US"
    },
    {
      "name": "Denver - Smiley MS",
      "address": "2540 Holly St., Denver CO 80207",
      "tennisCourts_courtIcon": "https://www.tennisdenver.com/assets/new_layout/courts-icon.jpg",
      "numberOfCourts": "4 Courts",
      "Latitude": 39.753618,
      "Longitude": -104.92214,
      "Accuracy Score": 1,
      "Accuracy Type": "range_interpolation",
      "Street": "Holly St",
      "City": "Denver",
      "State": "CO",
      "County": "Denver County",
      "Zip": 80207,
      "Country": "US"
    },
    {
      "name": "Arvada - Alice Sweet Thomas Park",
      "address": "11726 W 80th Ave., Arvada CO 80005",
      "tennisCourts_courtIcon": "https://www.tennisdenver.com/assets/new_layout/courts-icon.jpg",
      "numberOfCourts": "4 Courts",
      "Latitude": 39.842067,
      "Longitude": -105.130197,
      "Accuracy Score": 1,
      "Accuracy Type": "range_interpolation",
      "Street": "W 80th Ave",
      "City": "Arvada",
      "State": "CO",
      "County": "Jefferson County",
      "Zip": 80005,
      "Country": "US"
    },
    {
      "name": "Arvada - High School",
      "address": "8100 W 65th Ave., Arvada CO 80004",
      "tennisCourts_courtIcon": "https://www.tennisdenver.com/assets/new_layout/courts-icon.jpg",
      "numberOfCourts": "4 Courts",
      "Latitude": 39.815008,
      "Longitude": -105.08692,
      "Accuracy Score": 1,
      "Accuracy Type": "range_interpolation",
      "Street": "W 65th Ave",
      "City": "Arvada",
      "State": "CO",
      "County": "Jefferson County",
      "Zip": 80004,
      "Country": "US"
    },
    {
      "name": "Arvada - Wolff Park",
      "address": "8500 W 57th Ave., Arvada CO 80002",
      "tennisCourts_courtIcon": "https://www.tennisdenver.com/assets/new_layout/courts-icon.jpg",
      "numberOfCourts": "1 Courts",
      "Latitude": 39.800019,
      "Longitude": -105.092292,
      "Accuracy Score": 1,
      "Accuracy Type": "rooftop",
      "Street": "W 57th Ave",
      "City": "Arvada",
      "State": "CO",
      "County": "Jefferson County",
      "Zip": 80002,
      "Country": "US"
    },
    {
      "name": "Brighton - Brighton HS",
      "address": "270 S. 8th Avenue, Brighton CO 80601",
      "tennisCourts_courtIcon": "https://www.tennisdenver.com/assets/new_layout/courts-icon.jpg",
      "numberOfCourts": "4 Courts",
      "Latitude": 39.982575,
      "Longitude": -104.81192,
      "Accuracy Score": 1,
      "Accuracy Type": "rooftop",
      "Street": "S 8th Ave",
      "City": "Brighton",
      "State": "CO",
      "County": "Adams County",
      "Zip": 80601,
      "Country": "US"
    },
    {
      "name": "Broomfield - Swim & Tennis Club",
      "address": "250 Main St., Broomfield CO 80020",
      "tennisCourts_courtIcon": "https://www.tennisdenver.com/assets/new_layout/courts-icon.jpg",
      "numberOfCourts": "6 Courts",
      "Latitude": 39.920997,
      "Longitude": -105.0714,
      "Accuracy Score": 1,
      "Accuracy Type": "rooftop",
      "Street": "Main St",
      "City": "Broomfield",
      "State": "CO",
      "County": "Broomfield County",
      "Zip": 80020,
      "Country": "US"
    },
    {
      "name": "Henderson - Prairie View HS",
      "address": "12909 E 120th Ave., Henderson CO 80640",
      "tennisCourts_courtIcon": "https://www.tennisdenver.com/assets/new_layout/courts-icon.jpg",
      "numberOfCourts": "4 Courts",
      "Latitude": 39.916121,
      "Longitude": -104.840013,
      "Accuracy Score": 1,
      "Accuracy Type": "rooftop",
      "Street": "E 120th Ave",
      "City": "Henderson",
      "State": "CO",
      "County": "Adams County",
      "Zip": 80640,
      "Country": "US"
    },
    {
      "name": "Wheat Ridge - Panorama Park",
      "address": "W 35th Ave & Depew St., Wheat Ridge CO 80212",
      "tennisCourts_courtIcon": "https://www.tennisdenver.com/assets/new_layout/courts-icon.jpg",
      "numberOfCourts": "4 Courts",
      "Latitude": 39.7657,
      "Longitude": -105.052613,
      "Accuracy Score": 0.58,
      "Accuracy Type": "intersection",
      "Street": "W 35th Ave",
      "City": "Denver",
      "State": "CO",
      "County": "Denver County",
      "Zip": 80212,
      "Country": "US"
    },
    {
      "name": "Denver - Abraham Lincoln HS",
      "address": "2200 South Federal Blvd., Denver CO 80203",
      "tennisCourts_courtIcon": "https://www.tennisdenver.com/assets/new_layout/courts-icon.jpg",
      "numberOfCourts": "4 Courts",
      "Latitude": 39.676631,
      "Longitude": -105.024359,
      "Accuracy Score": 0.9,
      "Accuracy Type": "rooftop",
      "Street": "S Federal Blvd",
      "City": "Denver",
      "State": "CO",
      "County": "Denver County",
      "Zip": 80219,
      "Country": "US"
    },
    {
      "name": "Denver - Bear Valley Park",
      "address": "S. Saulsbury Street & W. Dartmouth Avenue, Denver CO 80227",
      "tennisCourts_courtIcon": "https://www.tennisdenver.com/assets/new_layout/courts-icon.jpg",
      "numberOfCourts": "6 Courts",
      "Latitude": 39.663702,
      "Longitude": -105.07538,
      "Accuracy Score": 0.79,
      "Accuracy Type": "intersection",
      "Street": "S Saulsbury St",
      "City": "Denver",
      "State": "CO",
      "County": "Denver County",
      "Zip": 80227,
      "Country": "US"
    },
    {
      "name": "Denver - Bible Park",
      "address": "E Yale Ave and S Newport St, Denver CO 80231",
      "tennisCourts_courtIcon": "https://www.tennisdenver.com/assets/new_layout/courts-icon.jpg",
      "numberOfCourts": "4 Courts",
      "Latitude": 39.667639,
      "Longitude": -104.907403,
      "Accuracy Score": 0.9,
      "Accuracy Type": "intersection",
      "Street": "E Yale Ave",
      "City": "Denver",
      "State": "CO",
      "County": "Denver County",
      "Zip": 80224,
      "Country": "US"
    },
    {
      "name": "Denver - Big 5 Sporting Goods",
      "address": "1430 S Colorado Blvd, Denver CO 80222",
      "tennisCourts_courtIcon": "",
      "numberOfCourts": "Tennis store",
      "Latitude": 39.690612,
      "Longitude": -104.939969,
      "Accuracy Score": 1,
      "Accuracy Type": "rooftop",
      "Street": "S Colorado Blvd",
      "City": "Denver",
      "State": "CO",
      "County": "Denver County",
      "Zip": 80222,
      "Country": "US"
    },
    {
      "name": "Denver - Big 5 Sporting Goods",
      "address": "7306 E. 36th Ave. Bldg. 2, Suite 201, Denver CO 80222",
      "tennisCourts_courtIcon": "",
      "numberOfCourts": "Tennis store",
      "Latitude": 39.767129,
      "Longitude": -104.901668,
      "Accuracy Score": 0.9,
      "Accuracy Type": "rooftop",
      "Street": "E 36th Ave",
      "City": "Denver",
      "State": "CO",
      "County": "Denver County",
      "Zip": 80207,
      "Country": "US"
    },
    {
      "name": "Denver - Colorado Athletic Club",
      "address": "2695 S Monaco Pkwy, Denver CO 80222",
      "tennisCourts_courtIcon": "https://www.tennisdenver.com/assets/new_layout/courts-icon.jpg",
      "numberOfCourts": "18 Courts",
      "Latitude": 39.668709,
      "Longitude": -104.913839,
      "Accuracy Score": 1,
      "Accuracy Type": "rooftop",
      "Street": "S Monaco Street Pkwy",
      "City": "Denver",
      "State": "CO",
      "County": "Denver County",
      "Zip": 80222,
      "Country": "US"
    },
    {
      "name": "Denver - Cook Park",
      "address": "6900 Cherry Creek S Dr., Denver CO 80224",
      "tennisCourts_courtIcon": "https://www.tennisdenver.com/assets/new_layout/courts-icon.jpg",
      "numberOfCourts": "4 Courts",
      "Latitude": 39.687966,
      "Longitude": -104.908426,
      "Accuracy Score": 0.9,
      "Accuracy Type": "range_interpolation",
      "Street": "Cherry Creek South Dr",
      "City": "Denver",
      "State": "CO",
      "County": "Denver County",
      "Zip": 80224,
      "Country": "US"
    },
    {
      "name": "Denver - Cory Elementary School",
      "address": "1550 S Steele St., Denver CO 80210",
      "tennisCourts_courtIcon": "https://www.tennisdenver.com/assets/new_layout/courts-icon.jpg",
      "numberOfCourts": "2 Courts",
      "Latitude": 39.688828,
      "Longitude": -104.949546,
      "Accuracy Score": 1,
      "Accuracy Type": "rooftop",
      "Street": "S Steele St",
      "City": "Denver",
      "State": "CO",
      "County": "Denver County",
      "Zip": 80210,
      "Country": "US"
    },
    {
      "name": "Denver - Crestmoor Park",
      "address": "6300 E Cedar Ave., Denver CO 80224",
      "tennisCourts_courtIcon": "https://www.tennisdenver.com/assets/new_layout/courts-icon.jpg",
      "numberOfCourts": "4 Courts",
      "Latitude": 39.712892,
      "Longitude": -104.914998,
      "Accuracy Score": 1,
      "Accuracy Type": "rooftop",
      "Street": "E Cedar Ave",
      "City": "Denver",
      "State": "CO",
      "County": "Denver County",
      "Zip": 80224,
      "Country": "US"
    },
    {
      "name": "Denver - D'Evelyn HS",
      "address": "10359 W Nassau Ave., Denver CO 80235",
      "tennisCourts_courtIcon": "https://www.tennisdenver.com/assets/new_layout/courts-icon.jpg",
      "numberOfCourts": "4 Courts",
      "Latitude": 39.644053,
      "Longitude": -105.11504,
      "Accuracy Score": 1,
      "Accuracy Type": "rooftop",
      "Street": "W Nassau Ave",
      "City": "Denver",
      "State": "CO",
      "County": "Jefferson County",
      "Zip": 80235,
      "Country": "US"
    },
    {
      "name": "Denver - DCIS",
      "address": "574 W 6th Ave., Denver CO 80204",
      "tennisCourts_courtIcon": "https://www.tennisdenver.com/assets/new_layout/courts-icon.jpg",
      "numberOfCourts": "4 Courts",
      "Latitude": 39.7254,
      "Longitude": -104.994467,
      "Accuracy Score": 1,
      "Accuracy Type": "rooftop",
      "Street": "W 6th Ave",
      "City": "Denver",
      "State": "CO",
      "County": "Denver County",
      "Zip": 80204,
      "Country": "US"
    },
    {
      "name": "Denver - Denver South HS",
      "address": "1700 E Louisiana Ave., Denver CO 80210",
      "tennisCourts_courtIcon": "https://www.tennisdenver.com/assets/new_layout/courts-icon.jpg",
      "numberOfCourts": "6 Courts",
      "Latitude": 39.692751,
      "Longitude": -104.967311,
      "Accuracy Score": 1,
      "Accuracy Type": "rooftop",
      "Street": "E Louisiana Ave",
      "City": "Denver",
      "State": "CO",
      "County": "Denver County",
      "Zip": 80210,
      "Country": "US"
    },
    {
      "name": "Denver - Denver West HS",
      "address": "951 Elati St., Denver CO 80204",
      "tennisCourts_courtIcon": "https://www.tennisdenver.com/assets/new_layout/courts-icon.jpg",
      "numberOfCourts": "4 Courts",
      "Latitude": 39.731305,
      "Longitude": -104.994218,
      "Accuracy Score": 1,
      "Accuracy Type": "range_interpolation",
      "Street": "Elati St",
      "City": "Denver",
      "State": "CO",
      "County": "Denver County",
      "Zip": 80204,
      "Country": "US"
    },
    {
      "name": "Denver - Eastmoor Swim & Tennis Club",
      "address": "6865 E. Princeton Ave., Denver CO 80237",
      "tennisCourts_courtIcon": "https://www.tennisdenver.com/assets/new_layout/courts-icon.jpg",
      "numberOfCourts": "6 Courts",
      "Latitude": 39.640928,
      "Longitude": -104.909973,
      "Accuracy Score": 1,
      "Accuracy Type": "rooftop",
      "Street": "E Princeton Ave",
      "City": "Denver",
      "State": "CO",
      "County": "Denver County",
      "Zip": 80237,
      "Country": "US"
    },
    {
      "name": "Denver - Eisenhower Park",
      "address": "3118 S Colorado Blvd., Denver CO 80222",
      "tennisCourts_courtIcon": "https://www.tennisdenver.com/assets/new_layout/courts-icon.jpg",
      "numberOfCourts": "4 Courts",
      "Latitude": 39.66043,
      "Longitude": -104.940687,
      "Accuracy Score": 1,
      "Accuracy Type": "range_interpolation",
      "Street": "State Hwy 2",
      "City": "Denver",
      "State": "CO",
      "County": "Denver County",
      "Zip": 80222,
      "Country": "US"
    },
    {
      "name": "Denver - Game-Set-Match, Inc.",
      "address": "333 S Colorado Blvd., Denver CO 80246",
      "tennisCourts_courtIcon": "",
      "numberOfCourts": "Tennis store",
      "Latitude": 39.710667,
      "Longitude": -104.941089,
      "Accuracy Score": 1,
      "Accuracy Type": "rooftop",
      "Street": "S Colorado Blvd",
      "City": "Glendale",
      "State": "CO",
      "County": "Denver County",
      "Zip": 80246,
      "Country": "US"
    },
    {
      "name": "Denver - Garfield Lake Park",
      "address": "S. Lowell Boulevard & W. Arizona Avenue, Denver CO 80219",
      "tennisCourts_courtIcon": "https://www.tennisdenver.com/assets/new_layout/courts-icon.jpg",
      "numberOfCourts": "4 Courts",
      "Latitude": 39.69491,
      "Longitude": -105.034394,
      "Accuracy Score": 1,
      "Accuracy Type": "intersection",
      "Street": "S Lowell Blvd",
      "City": "Denver",
      "State": "CO",
      "County": "Denver County",
      "Zip": 80219,
      "Country": "US"
    },
    {
      "name": "Denver - Garland Park",
      "address": "1240 S Monaco Pkwy., Denver CO 80224",
      "tennisCourts_courtIcon": "https://www.tennisdenver.com/assets/new_layout/courts-icon.jpg",
      "numberOfCourts": "4 Courts",
      "Latitude": 39.693799,
      "Longitude": -104.912739,
      "Accuracy Score": 1,
      "Accuracy Type": "range_interpolation",
      "Street": "S Monaco Pkwy",
      "City": "Denver",
      "State": "CO",
      "County": "Denver County",
      "Zip": 80224,
      "Country": "US"
    },
    {
      "name": "Denver - Gart Brothers Sporting Goods",
      "address": "50 S Kalamath St., Denver CO 80223",
      "tennisCourts_courtIcon": "",
      "numberOfCourts": "Tennis store",
      "Latitude": 39.71638,
      "Longitude": -104.999931,
      "Accuracy Score": 1,
      "Accuracy Type": "rooftop",
      "Street": "S Kalamath St",
      "City": "Denver",
      "State": "CO",
      "County": "Denver County",
      "Zip": 80223,
      "Country": "US"
    },
    {
      "name": "Denver - Gates Tennis Center",
      "address": "100 S Adams St., Denver CO 80209",
      "tennisCourts_courtIcon": "https://www.tennisdenver.com/assets/new_layout/courts-icon.jpg",
      "numberOfCourts": "16 Courts",
      "Latitude": 39.715446,
      "Longitude": -104.948434,
      "Accuracy Score": 1,
      "Accuracy Type": "range_interpolation",
      "Street": "S Adams St",
      "City": "Denver",
      "State": "CO",
      "County": "Denver County",
      "Zip": 80209,
      "Country": "US"
    },
    {
      "name": "Denver - George Washington HS",
      "address": "655 S. Monaco Parkway, Denver CO 80224",
      "tennisCourts_courtIcon": "https://www.tennisdenver.com/assets/new_layout/courts-icon.jpg",
      "numberOfCourts": "4 Courts",
      "Latitude": 39.704909,
      "Longitude": -104.913494,
      "Accuracy Score": 1,
      "Accuracy Type": "rooftop",
      "Street": "S Monaco Street Pkwy",
      "City": "Denver",
      "State": "CO",
      "County": "Denver County",
      "Zip": 80224,
      "Country": "US"
    },
    {
      "name": "Denver - Henry MS",
      "address": "3005 S Golden Way, Denver CO 80227",
      "tennisCourts_courtIcon": "https://www.tennisdenver.com/assets/new_layout/courts-icon.jpg",
      "numberOfCourts": "4 Courts",
      "Latitude": 39.660673,
      "Longitude": -105.058392,
      "Accuracy Score": 1,
      "Accuracy Type": "rooftop",
      "Street": "S Golden Way",
      "City": "Denver",
      "State": "CO",
      "County": "Denver County",
      "Zip": 80227,
      "Country": "US"
    },
    {
      "name": "Denver - Huston Lake Park",
      "address": "2550 W Kentucky Ave., Denver CO 80219",
      "tennisCourts_courtIcon": "https://www.tennisdenver.com/assets/new_layout/courts-icon.jpg",
      "numberOfCourts": "4 Courts",
      "Latitude": 39.700291,
      "Longitude": -105.017477,
      "Accuracy Score": 1,
      "Accuracy Type": "range_interpolation",
      "Street": "W Kentucky Ave",
      "City": "Denver",
      "State": "CO",
      "County": "Denver County",
      "Zip": 80219,
      "Country": "US"
    },
    {
      "name": "Denver - JCC Tennis Center",
      "address": "350 S Dahlia St., Denver CO 80246",
      "tennisCourts_courtIcon": "https://www.tennisdenver.com/assets/new_layout/courts-icon.jpg",
      "numberOfCourts": "4 Courts",
      "Latitude": 39.709592,
      "Longitude": -104.930078,
      "Accuracy Score": 1,
      "Accuracy Type": "rooftop",
      "Street": "S Dahlia St",
      "City": "Glendale",
      "State": "CO",
      "County": "Denver County",
      "Zip": 80246,
      "Country": "US"
    },
    {
      "name": "Denver - JFK HS",
      "address": "2855 S. Lamar St., Denver CO 80227",
      "tennisCourts_courtIcon": "https://www.tennisdenver.com/assets/new_layout/courts-icon.jpg",
      "numberOfCourts": "4 Courts",
      "Latitude": 39.662539,
      "Longitude": -105.06763,
      "Accuracy Score": 1,
      "Accuracy Type": "rooftop",
      "Street": "S Lamar St",
      "City": "Denver",
      "State": "CO",
      "County": "Denver County",
      "Zip": 80227,
      "Country": "US"
    },
    {
      "name": "Denver - KIPP Sunshine Academy",
      "address": "375 S Tejon St., Denver CO 80223",
      "tennisCourts_courtIcon": "https://www.tennisdenver.com/assets/new_layout/courts-icon.jpg",
      "numberOfCourts": "3 Courts",
      "Latitude": 39.710195,
      "Longitude": -105.011592,
      "Accuracy Score": 1,
      "Accuracy Type": "rooftop",
      "Street": "S Tejon St",
      "City": "Denver",
      "State": "CO",
      "County": "Denver County",
      "Zip": 80223,
      "Country": "US"
    },
    {
      "name": "Denver - Lincoln Park",
      "address": "1150 Osage St., Denver CO 80204",
      "tennisCourts_courtIcon": "https://www.tennisdenver.com/assets/new_layout/courts-icon.jpg",
      "numberOfCourts": "2 Courts",
      "Latitude": 39.734512,
      "Longitude": -105.005122,
      "Accuracy Score": 1,
      "Accuracy Type": "range_interpolation",
      "Street": "Osage St",
      "City": "Denver",
      "State": "CO",
      "County": "Denver County",
      "Zip": 80204,
      "Country": "US"
    },
    {
      "name": "Denver - Lowry Sports Complex",
      "address": "8100 E Lowry Blvd., Denver CO 80230",
      "tennisCourts_courtIcon": "https://www.tennisdenver.com/assets/new_layout/courts-icon.jpg",
      "numberOfCourts": "4 Courts",
      "Latitude": 39.717375,
      "Longitude": -104.894406,
      "Accuracy Score": 0.9,
      "Accuracy Type": "rooftop",
      "Street": "E Lowry Blvd",
      "City": "Denver",
      "State": "CO",
      "County": "Denver County",
      "Zip": 80220,
      "Country": "US"
    },
    {
      "name": "Denver - Meadow Creek Tennis Club",
      "address": "6305 W 6th Ave., Denver CO 80214",
      "tennisCourts_courtIcon": "https://www.tennisdenver.com/assets/new_layout/courts-icon.jpg",
      "numberOfCourts": "10 Courts",
      "Latitude": 39.725977,
      "Longitude": -105.066686,
      "Accuracy Score": 1,
      "Accuracy Type": "range_interpolation",
      "Street": "W 6th Ave",
      "City": "Edgewater",
      "State": "CO",
      "County": "Jefferson County",
      "Zip": 80214,
      "Country": "US"
    },
    {
      "name": "Denver - Mullen HS",
      "address": "3601 S. Lowell Blvd., Denver CO 80236",
      "tennisCourts_courtIcon": "https://www.tennisdenver.com/assets/new_layout/courts-icon.jpg",
      "numberOfCourts": "6 Courts",
      "Latitude": 39.653212,
      "Longitude": -105.035563,
      "Accuracy Score": 1,
      "Accuracy Type": "rooftop",
      "Street": "S Lowell Blvd",
      "City": "Denver",
      "State": "CO",
      "County": "Denver County",
      "Zip": 80236,
      "Country": "US"
    },
    {
      "name": "Denver - Observatory Park",
      "address": "E Warren Ave & S Milwaukee St, Denver CO 80210",
      "tennisCourts_courtIcon": "https://www.tennisdenver.com/assets/new_layout/courts-icon.jpg",
      "numberOfCourts": "4 Courts",
      "Latitude": 39.676608,
      "Longitude": -104.952254,
      "Accuracy Score": 1,
      "Accuracy Type": "intersection",
      "Street": "E Warren Ave",
      "City": "Denver",
      "State": "CO",
      "County": "Denver County",
      "Zip": 80210,
      "Country": "US"
    },
    {
      "name": "Denver - Place Bridge Academy",
      "address": "7125 Cherry Creek N Dr, Denver Co 80224",
      "tennisCourts_courtIcon": "https://www.tennisdenver.com/assets/new_layout/courts-icon.jpg",
      "numberOfCourts": "4 Courts",
      "Latitude": 39.688459,
      "Longitude": -104.907698,
      "Accuracy Score": 1,
      "Accuracy Type": "range_interpolation",
      "Street": "Cherry Creek North Dr",
      "City": "Denver",
      "State": "CO",
      "County": "Denver County",
      "Zip": 80224,
      "Country": "US"
    },
    {
      "name": "Denver - Place MS",
      "address": "E Florida Ave & S Oneida St, Denver CO 80224",
      "tennisCourts_courtIcon": "https://www.tennisdenver.com/assets/new_layout/courts-icon.jpg",
      "numberOfCourts": "4 Courts",
      "Latitude": 39.689447,
      "Longitude": -104.90965,
      "Accuracy Score": 0.88,
      "Accuracy Type": "intersection",
      "Street": "E Florida Ave",
      "City": "Denver",
      "State": "CO",
      "County": "Denver County",
      "Zip": 80224,
      "Country": "US"
    },
    {
      "name": "Denver - Rosamond Park",
      "address": "E Quincy Ave & S Tamarac Dr, Denver CO 80237",
      "tennisCourts_courtIcon": "https://www.tennisdenver.com/assets/new_layout/courts-icon.jpg",
      "numberOfCourts": "4 Courts",
      "Latitude": 39.63867,
      "Longitude": -104.892683,
      "Accuracy Score": 1,
      "Accuracy Type": "intersection",
      "Street": "E Quincy Ave",
      "City": "Denver",
      "State": "CO",
      "County": "Denver County",
      "Zip": 80237,
      "Country": "US"
    },
    {
      "name": "Denver - Sheridan Park",
      "address": "3325 W Oxford Ave., Denver CO 80236",
      "tennisCourts_courtIcon": "https://www.tennisdenver.com/assets/new_layout/courts-icon.jpg",
      "numberOfCourts": "4 Courts",
      "Latitude": 39.6441,
      "Longitude": -105.031314,
      "Accuracy Score": 1,
      "Accuracy Type": "rooftop",
      "Street": "W Oxford Ave",
      "City": "Denver",
      "State": "CO",
      "County": "Arapahoe County",
      "Zip": 80236,
      "Country": "US"
    },
    {
      "name": "Denver - Sports Plus",
      "address": "1055 S Gaylord St., Denver CO 80209",
      "tennisCourts_courtIcon": "",
      "numberOfCourts": "Tennis store",
      "Latitude": 39.697396,
      "Longitude": -104.961906,
      "Accuracy Score": 1,
      "Accuracy Type": "rooftop",
      "Street": "S Gaylord St",
      "City": "Denver",
      "State": "CO",
      "County": "Denver County",
      "Zip": 80209,
      "Country": "US"
    },
    {
      "name": "Denver - Thomas Jefferson HS",
      "address": "3950 S. Holly St., Denver CO 80237",
      "tennisCourts_courtIcon": "https://www.tennisdenver.com/assets/new_layout/courts-icon.jpg",
      "numberOfCourts": "4 Courts",
      "Latitude": 39.646811,
      "Longitude": -104.921461,
      "Accuracy Score": 1,
      "Accuracy Type": "rooftop",
      "Street": "S Holly St",
      "City": "Denver",
      "State": "CO",
      "County": "Denver County",
      "Zip": 80237,
      "Country": "US"
    },
    {
      "name": "Denver - University of Denver",
      "address": "1999 E Asbury Ave., Denver CO 80210",
      "tennisCourts_courtIcon": "https://www.tennisdenver.com/assets/new_layout/courts-icon.jpg",
      "numberOfCourts": "6 Courts",
      "Latitude": 39.680343,
      "Longitude": -104.959724,
      "Accuracy Score": 1,
      "Accuracy Type": "rooftop",
      "Street": "E Asbury Ave",
      "City": "Denver",
      "State": "CO",
      "County": "Denver County",
      "Zip": 80210,
      "Country": "US"
    },
    {
      "name": "Denver - Washington Park",
      "address": "E Louisiana Ave & S Lafayette St., Denver CO 80210",
      "tennisCourts_courtIcon": "https://www.tennisdenver.com/assets/new_layout/courts-icon.jpg",
      "numberOfCourts": "10 Courts",
      "Latitude": 39.692962,
      "Longitude": -104.971067,
      "Accuracy Score": 0.81,
      "Accuracy Type": "intersection",
      "Street": "E Louisiana Ave",
      "City": "Denver",
      "State": "CO",
      "County": "Denver County",
      "Zip": 80210,
      "Country": "US"
    },
    {
      "name": "Glendale - Infinity Park",
      "address": "4500 E Kentucky Ave, Glendale CO 80246",
      "tennisCourts_courtIcon": "https://www.tennisdenver.com/assets/new_layout/courts-icon.jpg",
      "numberOfCourts": "2 Courts",
      "Latitude": 39.699797,
      "Longitude": -104.934924,
      "Accuracy Score": 1,
      "Accuracy Type": "rooftop",
      "Street": "E Kentucky Ave",
      "City": "Glendale",
      "State": "CO",
      "County": "Denver County",
      "Zip": 80246,
      "Country": "US"
    },
    {
      "name": "Greenwood - Cherry Creek HS",
      "address": "9300 E Union Ave, Greenwood Village CO 80111",
      "tennisCourts_courtIcon": "https://www.tennisdenver.com/assets/new_layout/courts-icon.jpg",
      "numberOfCourts": "8 Courts",
      "Latitude": 39.630218,
      "Longitude": -104.878275,
      "Accuracy Score": 1,
      "Accuracy Type": "rooftop",
      "Street": "E Union Ave",
      "City": "Englewood",
      "State": "CO",
      "County": "Arapahoe County",
      "Zip": 80111,
      "Country": "US"
    },
    {
      "name": "Golden - Big 5 Sporting Goods",
      "address": "17205 S. Golden Road, Golden CO 80401",
      "tennisCourts_courtIcon": "",
      "numberOfCourts": "Tennis store",
      "Latitude": 39.739622,
      "Longitude": -105.193759,
      "Accuracy Score": 1,
      "Accuracy Type": "rooftop",
      "Street": "S Golden Rd",
      "City": "Golden",
      "State": "CO",
      "County": "Jefferson County",
      "Zip": 80401,
      "Country": "US"
    },
    {
      "name": "Golden - Colorado School of Mines",
      "address": "1500 Illinois St., Golden CO 80401",
      "tennisCourts_courtIcon": "https://www.tennisdenver.com/assets/new_layout/courts-icon.jpg",
      "numberOfCourts": "4 Courts",
      "Latitude": 39.750879,
      "Longitude": -105.222876,
      "Accuracy Score": 1,
      "Accuracy Type": "rooftop",
      "Street": "Illinois St",
      "City": "Golden",
      "State": "CO",
      "County": "Jefferson County",
      "Zip": 80401,
      "Country": "US"
    },
    {
      "name": "Golden - Daniels Park",
      "address": "1315 Welch St., Golden CO 80401",
      "tennisCourts_courtIcon": "https://www.tennisdenver.com/assets/new_layout/courts-icon.jpg",
      "numberOfCourts": "4 Courts",
      "Latitude": 39.737352,
      "Longitude": -105.139344,
      "Accuracy Score": 1,
      "Accuracy Type": "rooftop",
      "Street": "Welch St",
      "City": "Golden",
      "State": "CO",
      "County": "Jefferson County",
      "Zip": 80401,
      "Country": "US"
    },
    {
      "name": "Golden - Golden HS",
      "address": "701 24th St., Golden CO 80401",
      "tennisCourts_courtIcon": "https://www.tennisdenver.com/assets/new_layout/courts-icon.jpg",
      "numberOfCourts": "1 Courts",
      "Latitude": 39.743241,
      "Longitude": -105.21147,
      "Accuracy Score": 1,
      "Accuracy Type": "rooftop",
      "Street": "24th St",
      "City": "Golden",
      "State": "CO",
      "County": "Jefferson County",
      "Zip": 80401,
      "Country": "US"
    },
    {
      "name": "Golden - Lions Park",
      "address": "1300 10th St., Golden CO 80401",
      "tennisCourts_courtIcon": "https://www.tennisdenver.com/assets/new_layout/courts-icon.jpg",
      "numberOfCourts": "3 Courts",
      "Latitude": 39.755303,
      "Longitude": -105.22743,
      "Accuracy Score": 1,
      "Accuracy Type": "range_interpolation",
      "Street": "10th St",
      "City": "Golden",
      "State": "CO",
      "County": "Jefferson County",
      "Zip": 80401,
      "Country": "US"
    },
    {
      "name": "Golden - South Ridge Park",
      "address": "17400 W 16th Ave., Golden CO 80401",
      "tennisCourts_courtIcon": "https://www.tennisdenver.com/assets/new_layout/courts-icon.jpg",
      "numberOfCourts": "2 Courts",
      "Latitude": 39.742496,
      "Longitude": -105.196291,
      "Accuracy Score": 1,
      "Accuracy Type": "range_interpolation",
      "Street": "W 16th Ave",
      "City": "Golden",
      "State": "CO",
      "County": "Jefferson County",
      "Zip": 80401,
      "Country": "US"
    },
    {
      "name": "Golden - Tanglewood Sports Park",
      "address": "13950 W 20th Ave, Golden CO 80401",
      "tennisCourts_courtIcon": "https://www.tennisdenver.com/assets/new_layout/courts-icon.jpg",
      "numberOfCourts": "2 Courts",
      "Latitude": 39.746353,
      "Longitude": -105.155937,
      "Accuracy Score": 1,
      "Accuracy Type": "rooftop",
      "Street": "W 20th Ave",
      "City": "Golden",
      "State": "CO",
      "County": "Jefferson County",
      "Zip": 80401,
      "Country": "US"
    },
    {
      "name": "Littleton - The Village Club",
      "address": "4601 E Belleview Ave., Littleton CO 80121",
      "tennisCourts_courtIcon": "https://www.tennisdenver.com/assets/new_layout/courts-icon.jpg",
      "numberOfCourts": "6 Courts",
      "Latitude": 39.625065,
      "Longitude": -104.933996,
      "Accuracy Score": 1,
      "Accuracy Type": "rooftop",
      "Street": "E Belleview Ave",
      "City": "Littleton",
      "State": "CO",
      "County": "Arapahoe County",
      "Zip": 80121,
      "Country": "US"
    },
    {
      "name": "Lakewood - Alameda HS",
      "address": "1255 S. Wadsworth Blvd., Lakewood CO 80232",
      "tennisCourts_courtIcon": "https://www.tennisdenver.com/assets/new_layout/courts-icon.jpg",
      "numberOfCourts": "4 Courts",
      "Latitude": 39.693684,
      "Longitude": -105.084175,
      "Accuracy Score": 1,
      "Accuracy Type": "rooftop",
      "Street": "S Wadsworth Blvd",
      "City": "Denver",
      "State": "CO",
      "County": "Jefferson County",
      "Zip": 80232,
      "Country": "US"
    },
    {
      "name": "Lakewood - Bear Creek Tennis Club",
      "address": "3180 S Pierce St., Lakewood CO 80227",
      "tennisCourts_courtIcon": "https://www.tennisdenver.com/assets/new_layout/courts-icon.jpg",
      "numberOfCourts": "4 Courts",
      "Latitude": 39.658452,
      "Longitude": -105.070801,
      "Accuracy Score": 1,
      "Accuracy Type": "rooftop",
      "Street": "S Pierce St",
      "City": "Denver",
      "State": "CO",
      "County": "Jefferson County",
      "Zip": 80227,
      "Country": "US"
    },
    {
      "name": "Lakewood - Big 5 Sporting Goods",
      "address": "7111 West Alameda Avenue, Lakewood CO 80226",
      "tennisCourts_courtIcon": "",
      "numberOfCourts": "Tennis store",
      "Latitude": 39.71205,
      "Longitude": -105.075674,
      "Accuracy Score": 1,
      "Accuracy Type": "rooftop",
      "Street": "W Alameda Ave",
      "City": "Denver",
      "State": "CO",
      "County": "Jefferson County",
      "Zip": 80226,
      "Country": "US"
    },
    {
      "name": "Lakewood - Daniels Park",
      "address": "1315 Welch St., Lakewood CO 80401",
      "tennisCourts_courtIcon": "https://www.tennisdenver.com/assets/new_layout/courts-icon.jpg",
      "numberOfCourts": "4 Courts",
      "Latitude": 39.737352,
      "Longitude": -105.139344,
      "Accuracy Score": 1,
      "Accuracy Type": "rooftop",
      "Street": "Welch St",
      "City": "Golden",
      "State": "CO",
      "County": "Jefferson County",
      "Zip": 80401,
      "Country": "US"
    },
    {
      "name": "Lakewood - Dick's Sporting Goods",
      "address": "7313 W Alaska Drive, Lakewood CO 80226",
      "tennisCourts_courtIcon": "",
      "numberOfCourts": "Tennis store",
      "Latitude": 39.709488,
      "Longitude": -105.078437,
      "Accuracy Score": 1,
      "Accuracy Type": "rooftop",
      "Street": "W Alaska Dr",
      "City": "Denver",
      "State": "CO",
      "County": "Jefferson County",
      "Zip": 80226,
      "Country": "US"
    },
    {
      "name": "Lakewood - Green Mountain HS",
      "address": "13175 W Green Mountain Dr., Lakewood CO 80228",
      "tennisCourts_courtIcon": "https://www.tennisdenver.com/assets/new_layout/courts-icon.jpg",
      "numberOfCourts": "4 Courts",
      "Latitude": 39.693239,
      "Longitude": -105.145093,
      "Accuracy Score": 1,
      "Accuracy Type": "rooftop",
      "Street": "W Green Mountain Dr",
      "City": "Green Mountain Village",
      "State": "CO",
      "County": "Jefferson County",
      "Zip": 80228,
      "Country": "US"
    },
    {
      "name": "Lakewood - Green Mountain Rec. Ctr.",
      "address": "13198 W Green Mountain Dr., Lakewood CO 80227",
      "tennisCourts_courtIcon": "https://www.tennisdenver.com/assets/new_layout/courts-icon.jpg",
      "numberOfCourts": "2 Courts",
      "Latitude": 39.69149,
      "Longitude": -105.148651,
      "Accuracy Score": 0.9,
      "Accuracy Type": "rooftop",
      "Street": "W Green Mountain Dr",
      "City": "Green Mountain Village",
      "State": "CO",
      "County": "Jefferson County",
      "Zip": 80228,
      "Country": "US"
    },
    {
      "name": "Lakewood - Lakewood Park",
      "address": "S Kipling St and W. Cedar Ave, Denver CO 80226",
      "tennisCourts_courtIcon": "https://www.tennisdenver.com/assets/new_layout/courts-icon.jpg",
      "numberOfCourts": "8 Courts",
      "Latitude": 39.712966,
      "Longitude": -105.109764,
      "Accuracy Score": 1,
      "Accuracy Type": "intersection",
      "Street": "S Kipling St",
      "City": "Denver",
      "State": "CO",
      "County": "Jefferson County",
      "Zip": 80226,
      "Country": "US"
    },
    {
      "name": "Lakewood - Lasley Park",
      "address": "6677 W Florida Ave., Lakewood CO 80232",
      "tennisCourts_courtIcon": "https://www.tennisdenver.com/assets/new_layout/courts-icon.jpg",
      "numberOfCourts": "2 Courts",
      "Latitude": 39.689599,
      "Longitude": -105.070452,
      "Accuracy Score": 1,
      "Accuracy Type": "range_interpolation",
      "Street": "W Florida Ave",
      "City": "Denver",
      "State": "CO",
      "County": "Jefferson County",
      "Zip": 80232,
      "Country": "US"
    },
    {
      "name": "Lakewood - Morse Park",
      "address": "8000 W 20th Ave., Lakewood CO 80214",
      "tennisCourts_courtIcon": "https://www.tennisdenver.com/assets/new_layout/courts-icon.jpg",
      "numberOfCourts": "6 Courts",
      "Latitude": 39.747686,
      "Longitude": -105.086058,
      "Accuracy Score": 1,
      "Accuracy Type": "range_interpolation",
      "Street": "W 20th Ave",
      "City": "Edgewater",
      "State": "CO",
      "County": "Jefferson County",
      "Zip": 80214,
      "Country": "US"
    },
    {
      "name": "Lakewood - O'Kane Park",
      "address": "7101 W 1st Ave, Lakewood CO 80226",
      "tennisCourts_courtIcon": "https://www.tennisdenver.com/assets/new_layout/courts-icon.jpg",
      "numberOfCourts": "2 Courts",
      "Latitude": 39.719338,
      "Longitude": -105.07404,
      "Accuracy Score": 1,
      "Accuracy Type": "rooftop",
      "Street": "W 1st Ave",
      "City": "Denver",
      "State": "CO",
      "County": "Jefferson County",
      "Zip": 80226,
      "Country": "US"
    },
    {
      "name": "Lakewood - Rocky Mountain Sports",
      "address": "790 Kipling St., Lakewood CO 80215",
      "tennisCourts_courtIcon": "",
      "numberOfCourts": "Tennis store",
      "Latitude": 39.72905,
      "Longitude": -105.109301,
      "Accuracy Score": 1,
      "Accuracy Type": "rooftop",
      "Street": "Kipling St",
      "City": "Lakewood",
      "State": "CO",
      "County": "Jefferson County",
      "Zip": 80215,
      "Country": "US"
    },
    {
      "name": "Castle Rock - Bison Park",
      "address": "1390 Clear Sky Way, Castle Rock CO 80109",
      "tennisCourts_courtIcon": "https://www.tennisdenver.com/assets/new_layout/courts-icon.jpg",
      "numberOfCourts": "4 Courts",
      "Latitude": 39.380681,
      "Longitude": -104.903762,
      "Accuracy Score": 1,
      "Accuracy Type": "rooftop",
      "Street": "Clear Sky Way",
      "City": "Castle Rock",
      "State": "CO",
      "County": "Douglas County",
      "Zip": 80109,
      "Country": "US"
    },
    {
      "name": "Centennial - Game-Set-Match, Inc.",
      "address": "8280 S. Quebec St. Suite A, Centennial CO 80112",
      "tennisCourts_courtIcon": "",
      "numberOfCourts": "Tennis store",
      "Latitude": 39.566354,
      "Longitude": -104.902455,
      "Accuracy Score": 1,
      "Accuracy Type": "rooftop",
      "Street": "S Quebec St",
      "City": "Englewood",
      "State": "CO",
      "County": "Arapahoe County",
      "Zip": 80112,
      "Country": "US"
    },
    {
      "name": "Centennial - Holly Park",
      "address": "6565 S Krameria Way, Centennial CO 80111",
      "tennisCourts_courtIcon": "https://www.tennisdenver.com/assets/new_layout/courts-icon.jpg",
      "numberOfCourts": "6 Courts",
      "Latitude": 39.596748,
      "Longitude": -104.917255,
      "Accuracy Score": 0.6,
      "Accuracy Type": "nearest_rooftop_match",
      "Street": "S Krameria Way",
      "City": "Englewood",
      "State": "CO",
      "County": "Arapahoe County",
      "Zip": 80111,
      "Country": "US"
    },
    {
      "name": "Centennial - Life Time Fitness",
      "address": "5000 E Dry Creek Road, Centennial CO 80122",
      "tennisCourts_courtIcon": "https://www.tennisdenver.com/assets/new_layout/courts-icon.jpg",
      "numberOfCourts": "1 Courts",
      "Latitude": 39.577932,
      "Longitude": -104.928876,
      "Accuracy Score": 1,
      "Accuracy Type": "rooftop",
      "Street": "E Dry Creek Rd",
      "City": "Littleton",
      "State": "CO",
      "County": "Arapahoe County",
      "Zip": 80122,
      "Country": "US"
    },
    {
      "name": "Highlands Ranch - Big 5 Sporting Goods",
      "address": "8675 S. Quebec St.., Highlands Ranch CO 80130",
      "tennisCourts_courtIcon": "",
      "numberOfCourts": "Tennis store",
      "Latitude": 39.558341,
      "Longitude": -104.907367,
      "Accuracy Score": 1,
      "Accuracy Type": "rooftop",
      "Street": "S Quebec St",
      "City": "Littleton",
      "State": "CO",
      "County": "Douglas County",
      "Zip": 80130,
      "Country": "US"
    },
    {
      "name": "Highlands Ranch - High School",
      "address": "9375 Cresthill Lane, Highlands Ranch CO 80130",
      "tennisCourts_courtIcon": "https://www.tennisdenver.com/assets/new_layout/courts-icon.jpg",
      "numberOfCourts": "6 Courts",
      "Latitude": 39.544841,
      "Longitude": -104.932552,
      "Accuracy Score": 1,
      "Accuracy Type": "rooftop",
      "Street": "Cresthill Ln",
      "City": "Littleton",
      "State": "CO",
      "County": "Douglas County",
      "Zip": 80130,
      "Country": "US"
    },
    {
      "name": "Highlands Ranch - Lebsack Tennis Center",
      "address": "3280 Redstone Park Cir., Highlands Ranch CO 80129",
      "tennisCourts_courtIcon": "https://www.tennisdenver.com/assets/new_layout/courts-icon.jpg",
      "numberOfCourts": "8 Courts",
      "Latitude": 39.546436,
      "Longitude": -105.031322,
      "Accuracy Score": 1,
      "Accuracy Type": "rooftop",
      "Street": "Redstone Park Cir",
      "City": "Littleton",
      "State": "CO",
      "County": "Douglas County",
      "Zip": 80129,
      "Country": "US"
    },
    {
      "name": "Highlands Ranch - Mountain Views HS",
      "address": "10585 Mountain Vista Ridge, Highlands Ranch CO 80126",
      "tennisCourts_courtIcon": "https://www.tennisdenver.com/assets/new_layout/courts-icon.jpg",
      "numberOfCourts": "6 Courts",
      "Latitude": 39.522145,
      "Longitude": -104.965771,
      "Accuracy Score": 1,
      "Accuracy Type": "rooftop",
      "Street": "Mtn Vista Rdg",
      "City": "Littleton",
      "State": "CO",
      "County": "Douglas County",
      "Zip": 80126,
      "Country": "US"
    },
    {
      "name": "Highlands Ranch - Northridge Rec. Center",
      "address": "8801 S Broadway, Highlands Ranch CO 80126",
      "tennisCourts_courtIcon": "https://www.tennisdenver.com/assets/new_layout/courts-icon.jpg",
      "numberOfCourts": "11 Courts",
      "Latitude": 39.556832,
      "Longitude": -104.988606,
      "Accuracy Score": 1,
      "Accuracy Type": "rooftop",
      "Street": "S Broadway",
      "City": "Littleton",
      "State": "CO",
      "County": "Douglas County",
      "Zip": 80126,
      "Country": "US"
    },
    {
      "name": "Highlands Ranch - Rock Canyon HS",
      "address": "5810 McArthur Ranch Rd., Highlands Ranch CO 80124",
      "tennisCourts_courtIcon": "https://www.tennisdenver.com/assets/new_layout/courts-icon.jpg",
      "numberOfCourts": "6 Courts",
      "Latitude": 39.519709,
      "Longitude": -104.92128,
      "Accuracy Score": 1,
      "Accuracy Type": "rooftop",
      "Street": "McArthur Ranch Rd",
      "City": "Littleton",
      "State": "CO",
      "County": "Douglas County",
      "Zip": 80124,
      "Country": "US"
    },
    {
      "name": "Highlands Ranch - Southridge Rec Center",
      "address": "4800 McArthur Ranch Rd., Highlands Ranch CO 80130",
      "tennisCourts_courtIcon": "https://www.tennisdenver.com/assets/new_layout/courts-icon.jpg",
      "numberOfCourts": "11 Courts",
      "Latitude": 39.523585,
      "Longitude": -104.934094,
      "Accuracy Score": 1,
      "Accuracy Type": "rooftop",
      "Street": "McArthur Ranch Rd",
      "City": "Littleton",
      "State": "CO",
      "County": "Douglas County",
      "Zip": 80130,
      "Country": "US"
    },
    {
      "name": "Highlands Ranch - Thunder Ridge HS",
      "address": "1991 W. Wildcat Reserve Parkway, Highlands Ranch CO 80129",
      "tennisCourts_courtIcon": "https://www.tennisdenver.com/assets/new_layout/courts-icon.jpg",
      "numberOfCourts": "6 Courts",
      "Latitude": 39.534954,
      "Longitude": -105.01128,
      "Accuracy Score": 1,
      "Accuracy Type": "rooftop",
      "Street": "W Wildcat Reserve Pkwy",
      "City": "Littleton",
      "State": "CO",
      "County": "Douglas County",
      "Zip": 80129,
      "Country": "US"
    },
    {
      "name": "Littleton - Araphahoe HS",
      "address": "2201 E Dry Creek Rd., Littleton CO 80122",
      "tennisCourts_courtIcon": "https://www.tennisdenver.com/assets/new_layout/courts-icon.jpg",
      "numberOfCourts": "4 Courts",
      "Latitude": 39.582856,
      "Longitude": -104.962785,
      "Accuracy Score": 1,
      "Accuracy Type": "rooftop",
      "Street": "E Dry Creek Rd",
      "City": "Littleton",
      "State": "CO",
      "County": "Arapahoe County",
      "Zip": 80122,
      "Country": "US"
    },
    {
      "name": "Littleton - Big 5 Sporting Goods",
      "address": "10027 W. Remington Ave., Suite 100, Littleton CO 80127",
      "tennisCourts_courtIcon": "",
      "numberOfCourts": "Tennis store",
      "Latitude": 39.565864,
      "Longitude": -105.110917,
      "Accuracy Score": 1,
      "Accuracy Type": "rooftop",
      "Street": "W Remington Ave",
      "City": "Littleton",
      "State": "CO",
      "County": "Jefferson County",
      "Zip": 80127,
      "Country": "US"
    },
    {
      "name": "Littleton - Clement Park",
      "address": "6100 S Pierce St., Littleton CO 80123",
      "tennisCourts_courtIcon": "https://www.tennisdenver.com/assets/new_layout/courts-icon.jpg",
      "numberOfCourts": "8 Courts",
      "Latitude": 39.608894,
      "Longitude": -105.0727,
      "Accuracy Score": 0.9,
      "Accuracy Type": "range_interpolation",
      "Street": "S Pierce St",
      "City": "Littleton",
      "State": "CO",
      "County": "Jefferson County",
      "Zip": 80123,
      "Country": "US"
    },
    {
      "name": "Littleton - Columbine Knolls",
      "address": "6191 W. Plymouth Dr., Littleton CO 80128",
      "tennisCourts_courtIcon": "https://www.tennisdenver.com/assets/new_layout/courts-icon.jpg",
      "numberOfCourts": "2 Courts",
      "Latitude": 39.591506,
      "Longitude": -105.064831,
      "Accuracy Score": 1,
      "Accuracy Type": "rooftop",
      "Street": "W Plymouth Dr",
      "City": "Littleton",
      "State": "CO",
      "County": "Jefferson County",
      "Zip": 80128,
      "Country": "US"
    },
    {
      "name": "Littleton - Dakota Ridge HS",
      "address": "13399 W. Coal Mine Ave., Littleton CO 80127",
      "tennisCourts_courtIcon": "https://www.tennisdenver.com/assets/new_layout/courts-icon.jpg",
      "numberOfCourts": "4 Courts",
      "Latitude": 39.604105,
      "Longitude": -105.149681,
      "Accuracy Score": 1,
      "Accuracy Type": "rooftop",
      "Street": "W Coal Mine Ave",
      "City": "Littleton",
      "State": "CO",
      "County": "Jefferson County",
      "Zip": 80127,
      "Country": "US"
    },
    {
      "name": "Littleton - DeKoevend Park",
      "address": "6482 S University Blvd, Littleton CO 80121",
      "tennisCourts_courtIcon": "https://www.tennisdenver.com/assets/new_layout/courts-icon.jpg",
      "numberOfCourts": "6 Courts",
      "Latitude": 39.600008,
      "Longitude": -104.957366,
      "Accuracy Score": 1,
      "Accuracy Type": "range_interpolation",
      "Street": "S University Blvd",
      "City": "Littleton",
      "State": "CO",
      "County": "Arapahoe County",
      "Zip": 80121,
      "Country": "US"
    },
    {
      "name": "Littleton - Gallup Park",
      "address": "6050 S Datura St., Littleton CO 80120",
      "tennisCourts_courtIcon": "https://www.tennisdenver.com/assets/new_layout/courts-icon.jpg",
      "numberOfCourts": "4 Courts",
      "Latitude": 39.607129,
      "Longitude": -105.004296,
      "Accuracy Score": 1,
      "Accuracy Type": "range_interpolation",
      "Street": "S Datura St",
      "City": "Littleton",
      "State": "CO",
      "County": "Arapahoe County",
      "Zip": 80120,
      "Country": "US"
    },
    {
      "name": "Littleton - Golf and Tennis Center",
      "address": "5800 S Federal Blvd., Littleton CO 80123",
      "tennisCourts_courtIcon": "https://www.tennisdenver.com/assets/new_layout/courts-icon.jpg",
      "numberOfCourts": "6 Courts",
      "Latitude": 39.611414,
      "Longitude": -105.027023,
      "Accuracy Score": 1,
      "Accuracy Type": "rooftop",
      "Street": "S Federal Blvd",
      "City": "Littleton",
      "State": "CO",
      "County": "Arapahoe County",
      "Zip": 80123,
      "Country": "US"
    },
    {
      "name": "Littleton - Grant Ranch",
      "address": "7255 W Grant Ranch Blvd,, Littleton CO 80123",
      "tennisCourts_courtIcon": "https://www.tennisdenver.com/assets/new_layout/courts-icon.jpg",
      "numberOfCourts": "2 Courts",
      "Latitude": 39.618962,
      "Longitude": -105.074413,
      "Accuracy Score": 1,
      "Accuracy Type": "rooftop",
      "Street": "W Grant Ranch Blvd",
      "City": "Littleton",
      "State": "CO",
      "County": "Jefferson County",
      "Zip": 80123,
      "Country": "US"
    },
    {
      "name": "Littleton - Harlow Park",
      "address": "5151 S Lowell Blvd., Littleton CO 80123",
      "tennisCourts_courtIcon": "https://www.tennisdenver.com/assets/new_layout/courts-icon.jpg",
      "numberOfCourts": "4 Courts",
      "Latitude": 39.623545,
      "Longitude": -105.035594,
      "Accuracy Score": 1,
      "Accuracy Type": "rooftop",
      "Street": "S Lowell Blvd",
      "City": "Littleton",
      "State": "CO",
      "County": "Arapahoe County",
      "Zip": 80123,
      "Country": "US"
    },
    {
      "name": "Littleton - Heritage HS",
      "address": "1401 W Geddes Ave., Littleton CO 80120",
      "tennisCourts_courtIcon": "https://www.tennisdenver.com/assets/new_layout/courts-icon.jpg",
      "numberOfCourts": "4 Courts",
      "Latitude": 39.586802,
      "Longitude": -105.003016,
      "Accuracy Score": 1,
      "Accuracy Type": "rooftop",
      "Street": "W Geddes Ave",
      "City": "Littleton",
      "State": "CO",
      "County": "Arapahoe County",
      "Zip": 80120,
      "Country": "US"
    },
    {
      "name": "Littleton - Highlands Ranch Rec. Center",
      "address": "4800 McArthur Ranch Rd., Littleton CO 80124",
      "tennisCourts_courtIcon": "https://www.tennisdenver.com/assets/new_layout/courts-icon.jpg",
      "numberOfCourts": "5 Courts",
      "Latitude": 39.523585,
      "Longitude": -104.934094,
      "Accuracy Score": 0.9,
      "Accuracy Type": "rooftop",
      "Street": "McArthur Ranch Rd",
      "City": "Littleton",
      "State": "CO",
      "County": "Douglas County",
      "Zip": 80130,
      "Country": "US"
    },
    {
      "name": "Littleton - Ken Caryl Community Ctr.",
      "address": "1 Club Drive, Littleton CO 80127",
      "tennisCourts_courtIcon": "https://www.tennisdenver.com/assets/new_layout/courts-icon.jpg",
      "numberOfCourts": "6 Courts",
      "Latitude": 39.576515,
      "Longitude": -105.152541,
      "Accuracy Score": 1,
      "Accuracy Type": "rooftop",
      "Street": "Club Dr",
      "City": "Littleton",
      "State": "CO",
      "County": "Jefferson County",
      "Zip": 80127,
      "Country": "US"
    },
    {
      "name": "Littleton - Ken Caryl Ranch House",
      "address": "7676 S. Continental Divide Rd., Littleton CO 80127",
      "tennisCourts_courtIcon": "https://www.tennisdenver.com/assets/new_layout/courts-icon.jpg",
      "numberOfCourts": "10 Courts",
      "Latitude": 39.57755,
      "Longitude": -105.119684,
      "Accuracy Score": 1,
      "Accuracy Type": "range_interpolation",
      "Street": "S Continental Divide Rd",
      "City": "Littleton",
      "State": "CO",
      "County": "Jefferson County",
      "Zip": 80127,
      "Country": "US"
    },
    {
      "name": "Littleton - Lilly Gulch Park",
      "address": "6147 S Holland Way, Littleton CO 80123",
      "tennisCourts_courtIcon": "https://www.tennisdenver.com/assets/new_layout/courts-icon.jpg",
      "numberOfCourts": "4 Courts",
      "Latitude": 39.603277,
      "Longitude": -105.103764,
      "Accuracy Score": 1,
      "Accuracy Type": "rooftop",
      "Street": "S Holland Way",
      "City": "Littleton",
      "State": "CO",
      "County": "Jefferson County",
      "Zip": 80123,
      "Country": "US"
    },
    {
      "name": "Littleton - Littleton HS",
      "address": "199 E Littleton Blvd., Littleton CO 80121",
      "tennisCourts_courtIcon": "https://www.tennisdenver.com/assets/new_layout/courts-icon.jpg",
      "numberOfCourts": "6 Courts",
      "Latitude": 39.613857,
      "Longitude": -104.984034,
      "Accuracy Score": 1,
      "Accuracy Type": "rooftop",
      "Street": "E Littleton Blvd",
      "City": "Littleton",
      "State": "CO",
      "County": "Arapahoe County",
      "Zip": 80121,
      "Country": "US"
    },
    {
      "name": "Littleton - Marker Park",
      "address": "7280 S Newland St., Littleton CO 80128",
      "tennisCourts_courtIcon": "https://www.tennisdenver.com/assets/new_layout/courts-icon.jpg",
      "numberOfCourts": "6 Courts",
      "Latitude": 39.58474,
      "Longitude": -105.0701,
      "Accuracy Score": 1,
      "Accuracy Type": "range_interpolation",
      "Street": "S Newland St",
      "City": "Littleton",
      "State": "CO",
      "County": "Jefferson County",
      "Zip": 80128,
      "Country": "US"
    },
    {
      "name": "Littleton - Powell MS",
      "address": "8000 S Corona Way, Littleton CO 80122",
      "tennisCourts_courtIcon": "https://www.tennisdenver.com/assets/new_layout/courts-icon.jpg",
      "numberOfCourts": "4 Courts",
      "Latitude": 39.573551,
      "Longitude": -104.977927,
      "Accuracy Score": 1,
      "Accuracy Type": "rooftop",
      "Street": "S Corona Way",
      "City": "Littleton",
      "State": "CO",
      "County": "Arapahoe County",
      "Zip": 80122,
      "Country": "US"
    },
    {
      "name": "Littleton - SW Auto Park",
      "address": "8400 W Union Ave., Littleton CO 80123",
      "tennisCourts_courtIcon": "https://www.tennisdenver.com/assets/new_layout/courts-icon.jpg",
      "numberOfCourts": "2 Courts",
      "Latitude": 39.63108,
      "Longitude": -105.095143,
      "Accuracy Score": 1,
      "Accuracy Type": "range_interpolation",
      "Street": "W Union Ave",
      "City": "Littleton",
      "State": "CO",
      "County": "Denver County",
      "Zip": 80123,
      "Country": "US"
    },
    {
      "name": "Littleton - Tennis Plus",
      "address": "537 W Highlands Ranch Parkway, Littleton CO 80129",
      "tennisCourts_courtIcon": "",
      "numberOfCourts": "Tennis store",
      "Latitude": 39.55003,
      "Longitude": -104.995042,
      "Accuracy Score": 1,
      "Accuracy Type": "rooftop",
      "Street": "W Highlands Ranch Pkwy",
      "City": "Littleton",
      "State": "CO",
      "County": "Douglas County",
      "Zip": 80129,
      "Country": "US"
    },
    {
      "name": "Littleton - West MS",
      "address": "5151 S Holly St., Littleton CO 80121",
      "tennisCourts_courtIcon": "https://www.tennisdenver.com/assets/new_layout/courts-icon.jpg",
      "numberOfCourts": "4 Courts",
      "Latitude": 39.623328,
      "Longitude": -104.923991,
      "Accuracy Score": 1,
      "Accuracy Type": "rooftop",
      "Street": "S Holly St",
      "City": "Littleton",
      "State": "CO",
      "County": "Arapahoe County",
      "Zip": 80121,
      "Country": "US"
    },
    {
      "name": "Lone Tree - Lone Tree Golf Club & Hotel",
      "address": "9808 Sunningdale Blvd., Lone Tree CO 80124",
      "tennisCourts_courtIcon": "https://www.tennisdenver.com/assets/new_layout/lighted-icon.jpg",
      "numberOfCourts": "Lighted",
      "Latitude": 39.538663,
      "Longitude": -104.896645,
      "Accuracy Score": 1,
      "Accuracy Type": "rooftop",
      "Street": "Sunningdale Blvd",
      "City": "Littleton",
      "State": "CO",
      "County": "Douglas County",
      "Zip": 80124,
      "Country": "US"
    },
    {
      "name": "Lone Tree - Tennis Court",
      "address": "Lone Tree Tennis Center and Park, Lone Tree Co 80124",
      "tennisCourts_courtIcon": "https://www.tennisdenver.com/assets/new_layout/courts-icon.jpg",
      "numberOfCourts": "6 Courts",
      "Latitude": 39.546869,
      "Longitude": -104.886118,
      "Accuracy Score": 0.14,
      "Accuracy Type": "intersection",
      "Street": "Lone Tree Pkwy",
      "City": "Littleton",
      "State": "CO",
      "County": "Douglas County",
      "Zip": 80124,
      "Country": "US"
    },
    {
      "name": "Parker - Chaparral HS",
      "address": "15655 Brookstone Dr., Parker CO 80134",
      "tennisCourts_courtIcon": "https://www.tennisdenver.com/assets/new_layout/courts-icon.jpg",
      "numberOfCourts": "6 Courts",
      "Latitude": 39.540642,
      "Longitude": -104.807999,
      "Accuracy Score": 1,
      "Accuracy Type": "rooftop",
      "Street": "Brookstone Dr",
      "City": "Parker",
      "State": "CO",
      "County": "Douglas County",
      "Zip": 80134,
      "Country": "US"
    },
    {
      "name": "Parker - Legend HS",
      "address": "22219 Hilltop Dr., Parker CO 80134",
      "tennisCourts_courtIcon": "https://www.tennisdenver.com/assets/new_layout/courts-icon.jpg",
      "numberOfCourts": "6 Courts",
      "Latitude": 39.490885,
      "Longitude": -104.730902,
      "Accuracy Score": 0.9,
      "Accuracy Type": "rooftop",
      "Street": "Hilltop Rd",
      "City": "Parker",
      "State": "CO",
      "County": "Douglas County",
      "Zip": 80138,
      "Country": "US"
    },
    {
      "name": "Parker - Ponderosa HS",
      "address": "7007 E. Bayou Gulch Rd., Parker CO 80134",
      "tennisCourts_courtIcon": "https://www.tennisdenver.com/assets/new_layout/courts-icon.jpg",
      "numberOfCourts": "4 Courts",
      "Latitude": 39.433277,
      "Longitude": -104.752559,
      "Accuracy Score": 1,
      "Accuracy Type": "range_interpolation",
      "Street": "E Bayou Gulch Rd",
      "City": "Parker",
      "State": "CO",
      "County": "Douglas County",
      "Zip": 80134,
      "Country": "US"
    },
    {
      "name": "Parker - Railbender Park",
      "address": "10543 Twenty Mile Rd., Parker CO 80134",
      "tennisCourts_courtIcon": "https://www.tennisdenver.com/assets/new_layout/courts-icon.jpg",
      "numberOfCourts": "6 Courts",
      "Latitude": 39.525237,
      "Longitude": -104.777709,
      "Accuracy Score": 1,
      "Accuracy Type": "rooftop",
      "Street": "Twenty Mile Rd",
      "City": "Parker",
      "State": "CO",
      "County": "Douglas County",
      "Zip": 80134,
      "Country": "US"
    },
    {
      "name": "Parker - Stonegate",
      "address": "10346 Stonegate Pkwy, Park CO 80134",
      "tennisCourts_courtIcon": "https://www.tennisdenver.com/assets/new_layout/courts-icon.jpg",
      "numberOfCourts": "4 Courts",
      "Latitude": 39.53337,
      "Longitude": -104.806552,
      "Accuracy Score": 1,
      "Accuracy Type": "range_interpolation",
      "Street": "Stonegate Pkwy",
      "City": "Parker",
      "State": "CO",
      "County": "Douglas County",
      "Zip": 80134,
      "Country": "US"
    },
    {
      "name": "Englewood - Arapahoe Lakes",
      "address": "6269 S. Elmira Circle East, Englewood CO 80111",
      "tennisCourts_courtIcon": "https://www.tennisdenver.com/assets/new_layout/courts-icon.jpg",
      "numberOfCourts": "4 Courts",
      "Latitude": 39.602836,
      "Longitude": -104.872124,
      "Accuracy Score": 1,
      "Accuracy Type": "range_interpolation",
      "Street": "S Elmira Cir E",
      "City": "Englewood",
      "State": "CO",
      "County": "Arapahoe County",
      "Zip": 80111,
      "Country": "US"
    },
    {
      "name": "Englewood - Barde Park",
      "address": "3100 S. Downing St., Englewood CO 80113",
      "tennisCourts_courtIcon": "https://www.tennisdenver.com/assets/new_layout/courts-icon.jpg",
      "numberOfCourts": "2 Courts",
      "Latitude": 39.659604,
      "Longitude": -104.973241,
      "Accuracy Score": 1,
      "Accuracy Type": "rooftop",
      "Street": "S Downing St",
      "City": "Englewood",
      "State": "CO",
      "County": "Arapahoe County",
      "Zip": 80113,
      "Country": "US"
    },
    {
      "name": "Englewood - Belleview Park",
      "address": "5001 S. Inca St., Englewood CO 80110",
      "tennisCourts_courtIcon": "https://www.tennisdenver.com/assets/new_layout/courts-icon.jpg",
      "numberOfCourts": "4 Courts",
      "Latitude": 39.624898,
      "Longitude": -104.999628,
      "Accuracy Score": 0.6,
      "Accuracy Type": "rooftop",
      "Street": "S Inca Dr",
      "City": "Englewood",
      "State": "CO",
      "County": "Arapahoe County",
      "Zip": 80110,
      "Country": "US"
    },
    {
      "name": "Englewood - Colorado Athletic Club - Inverness",
      "address": "374 Inverness Parkway, Englewood CO 80112",
      "tennisCourts_courtIcon": "https://www.tennisdenver.com/assets/new_layout/courts-icon.jpg",
      "numberOfCourts": "20 Courts",
      "Latitude": 39.562161,
      "Longitude": -104.864542,
      "Accuracy Score": 1,
      "Accuracy Type": "rooftop",
      "Street": "Inverness Pkwy",
      "City": "Englewood",
      "State": "CO",
      "County": "Douglas County",
      "Zip": 80112,
      "Country": "US"
    },
    {
      "name": "Englewood - Englewood HS",
      "address": "3800 S Logan St., Englewood CO 80113",
      "tennisCourts_courtIcon": "https://www.tennisdenver.com/assets/new_layout/courts-icon.jpg",
      "numberOfCourts": "8 Courts",
      "Latitude": 39.646784,
      "Longitude": -104.980916,
      "Accuracy Score": 1,
      "Accuracy Type": "rooftop",
      "Street": "S Logan St",
      "City": "Englewood",
      "State": "CO",
      "County": "Arapahoe County",
      "Zip": 80113,
      "Country": "US"
    },
    {
      "name": "Englewood - Kent Denver School",
      "address": "S Monroe Ln, Englewood CO 80113",
      "tennisCourts_courtIcon": "https://www.tennisdenver.com/assets/new_layout/courts-icon.jpg",
      "numberOfCourts": "7 Courts",
      "Latitude": 39.635744,
      "Longitude": -104.945734,
      "Accuracy Score": 1,
      "Accuracy Type": "street_center",
      "Street": "S Monroe Ln",
      "City": "Englewood",
      "State": "CO",
      "County": "Arapahoe County",
      "Zip": 80113,
      "Country": "US"
    },
    {
      "name": "Englewood - Oshman's Sporting Goods Inc.",
      "address": "1050 W Hampden Ave,, Englewood CO 80110",
      "tennisCourts_courtIcon": "",
      "numberOfCourts": "Tennis store",
      "Latitude": 39.650615,
      "Longitude": -104.999668,
      "Accuracy Score": 1,
      "Accuracy Type": "rooftop",
      "Street": "W Hampden Ave",
      "City": "Englewood",
      "State": "CO",
      "County": "Arapahoe County",
      "Zip": 80110,
      "Country": "US"
    },
    {
      "name": "Englewood - Romans Park",
      "address": "1800 E Floyd Ave., Englewood CO 80113",
      "tennisCourts_courtIcon": "https://www.tennisdenver.com/assets/new_layout/courts-icon.jpg",
      "numberOfCourts": "4 Courts",
      "Latitude": 39.656649,
      "Longitude": -104.966479,
      "Accuracy Score": 0.9,
      "Accuracy Type": "range_interpolation",
      "Street": "E Floyd Ave",
      "City": "Englewood",
      "State": "CO",
      "County": "Arapahoe County",
      "Zip": 80110,
      "Country": "US"
    },
    {
      "name": "Greenwood - Athletic and Tennis Club",
      "address": "5801 S Quebec St., Greenwood Village CO 80111",
      "tennisCourts_courtIcon": "https://www.tennisdenver.com/assets/new_layout/courts-icon.jpg",
      "numberOfCourts": "12 Courts",
      "Latitude": 39.610662,
      "Longitude": -104.905656,
      "Accuracy Score": 1,
      "Accuracy Type": "rooftop",
      "Street": "S Quebec St",
      "City": "Englewood",
      "State": "CO",
      "County": "Arapahoe County",
      "Zip": 80111,
      "Country": "US"
    },
    {
      "name": "Aurora - Aqua Vista Park",
      "address": "18700 E Wagon Trail Cir., Aurora CO 80015",
      "tennisCourts_courtIcon": "https://www.tennisdenver.com/assets/new_layout/courts-icon.jpg",
      "numberOfCourts": "2 Courts",
      "Latitude": 39.629779,
      "Longitude": -104.770172,
      "Accuracy Score": 1,
      "Accuracy Type": "rooftop",
      "Street": "E Wagon Trail Cir",
      "City": "Aurora",
      "State": "CO",
      "County": "Arapahoe County",
      "Zip": 80015,
      "Country": "US"
    },
    {
      "name": "Aurora - Aurora Central HS",
      "address": "11700 E. 11th Ave., Aurora CO 80010",
      "tennisCourts_courtIcon": "https://www.tennisdenver.com/assets/new_layout/courts-icon.jpg",
      "numberOfCourts": "6 Courts",
      "Latitude": 39.732295,
      "Longitude": -104.851831,
      "Accuracy Score": 1,
      "Accuracy Type": "rooftop",
      "Street": "E 11th Ave",
      "City": "Aurora",
      "State": "CO",
      "County": "Arapahoe County",
      "Zip": 80010,
      "Country": "US"
    },
    {
      "name": "Aurora - Big 5 Sporting Goods",
      "address": "10051 East Iliff Avenue, Aurora CO 80247",
      "tennisCourts_courtIcon": "",
      "numberOfCourts": "Tennis store",
      "Latitude": 39.675494,
      "Longitude": -104.869935,
      "Accuracy Score": 1,
      "Accuracy Type": "rooftop",
      "Street": "E Iliff Ave",
      "City": "Denver",
      "State": "CO",
      "County": "Arapahoe County",
      "Zip": 80247,
      "Country": "US"
    },
    {
      "name": "Aurora - Big 5 Sporting Goods",
      "address": "19330 E. Quincy Ave., Aurora CO 80016",
      "tennisCourts_courtIcon": "",
      "numberOfCourts": "Tennis store",
      "Latitude": 39.637876,
      "Longitude": -104.762529,
      "Accuracy Score": 0.9,
      "Accuracy Type": "rooftop",
      "Street": "E Quincy Ave",
      "City": "Aurora",
      "State": "CO",
      "County": "Arapahoe County",
      "Zip": 80015,
      "Country": "US"
    },
    {
      "name": "Aurora - Cherokee Trail HS",
      "address": "24650 E Smoky Hill Rd., Aurora CO 80016",
      "tennisCourts_courtIcon": "https://www.tennisdenver.com/assets/new_layout/courts-icon.jpg",
      "numberOfCourts": "6 Courts",
      "Latitude": 39.59,
      "Longitude": -104.691828,
      "Accuracy Score": 1,
      "Accuracy Type": "range_interpolation",
      "Street": "E Smoky Hill Rd",
      "City": "Aurora",
      "State": "CO",
      "County": "Arapahoe County",
      "Zip": 80016,
      "Country": "US"
    },
    {
      "name": "Aurora - Del Mar Park",
      "address": "24 Del Mar Cir., Aurora CO 80011",
      "tennisCourts_courtIcon": "https://www.tennisdenver.com/assets/new_layout/courts-icon.jpg",
      "numberOfCourts": "4 Courts",
      "Latitude": 39.728768,
      "Longitude": -104.847019,
      "Accuracy Score": 1,
      "Accuracy Type": "range_interpolation",
      "Street": "Del Mar Cir",
      "City": "Aurora",
      "State": "CO",
      "County": "Arapahoe County",
      "Zip": 80011,
      "Country": "US"
    },
    {
      "name": "Aurora - East Middle School",
      "address": "15000 E. 12th Ave., Aurora CO 80011",
      "tennisCourts_courtIcon": "https://www.tennisdenver.com/assets/new_layout/courts-icon.jpg",
      "numberOfCourts": "4 Courts",
      "Latitude": 39.733126,
      "Longitude": -104.813096,
      "Accuracy Score": 1,
      "Accuracy Type": "range_interpolation",
      "Street": "E 12th Ave",
      "City": "Aurora",
      "State": "CO",
      "County": "Arapahoe County",
      "Zip": 80011,
      "Country": "US"
    },
    {
      "name": "Aurora - Expo Park",
      "address": "10955 E Exposition Ave., Aurora CO 80012",
      "tennisCourts_courtIcon": "https://www.tennisdenver.com/assets/new_layout/courts-icon.jpg",
      "numberOfCourts": "4 Courts",
      "Latitude": 39.704342,
      "Longitude": -104.859547,
      "Accuracy Score": 1,
      "Accuracy Type": "rooftop",
      "Street": "E Exposition Ave",
      "City": "Aurora",
      "State": "CO",
      "County": "Arapahoe County",
      "Zip": 80012,
      "Country": "US"
    },
    {
      "name": "Aurora - Gateway HS",
      "address": "E Florida Ave & S Sable Blvd., Aurora CO 80012",
      "tennisCourts_courtIcon": "https://www.tennisdenver.com/assets/new_layout/courts-icon.jpg",
      "numberOfCourts": "6 Courts",
      "Latitude": 39.689353,
      "Longitude": -104.819273,
      "Accuracy Score": 1,
      "Accuracy Type": "intersection",
      "Street": "E Florida Ave",
      "City": "Aurora",
      "State": "CO",
      "County": "Arapahoe County",
      "Zip": 80012,
      "Country": "US"
    },
    {
      "name": "Aurora - Grandview HS",
      "address": "20500 E Arapahoe Rd., Aurora CO 80016",
      "tennisCourts_courtIcon": "https://www.tennisdenver.com/assets/new_layout/courts-icon.jpg",
      "numberOfCourts": "8 Courts",
      "Latitude": 39.592077,
      "Longitude": -104.746645,
      "Accuracy Score": 1,
      "Accuracy Type": "rooftop",
      "Street": "E Arapahoe Rd",
      "City": "Aurora",
      "State": "CO",
      "County": "Arapahoe County",
      "Zip": 80016,
      "Country": "US"
    },
    {
      "name": "Aurora - Havana Heights",
      "address": "10901 E Warren ave, Aurora CO 80014",
      "tennisCourts_courtIcon": "https://www.tennisdenver.com/assets/new_layout/courts-icon.jpg",
      "numberOfCourts": "2 Courts",
      "Latitude": 39.67684,
      "Longitude": -104.860996,
      "Accuracy Score": 1,
      "Accuracy Type": "rooftop",
      "Street": "E Warren Ave",
      "City": "Aurora",
      "State": "CO",
      "County": "Arapahoe County",
      "Zip": 80014,
      "Country": "US"
    },
    {
      "name": "Aurora - Heritage Eagle Bend",
      "address": "E. Mineral Place & S. Zante Court, Aurora CO 80016",
      "tennisCourts_courtIcon": "https://www.tennisdenver.com/assets/new_layout/courts-icon.jpg",
      "numberOfCourts": "4 Courts",
      "Latitude": 39.570045,
      "Longitude": -104.722505,
      "Accuracy Score": 0.63,
      "Accuracy Type": "intersection",
      "Street": "E Mineral Pl",
      "City": "Aurora",
      "State": "CO",
      "County": "Arapahoe County",
      "Zip": 80016,
      "Country": "US"
    },
    {
      "name": "Aurora - Horizon Park",
      "address": "3981 S. Reservoir Rd., Aurora CO 80013",
      "tennisCourts_courtIcon": "https://www.tennisdenver.com/assets/new_layout/courts-icon.jpg",
      "numberOfCourts": "3 Courts",
      "Latitude": 39.643342,
      "Longitude": -104.77158,
      "Accuracy Score": 1,
      "Accuracy Type": "rooftop",
      "Street": "S Reservoir Rd",
      "City": "Aurora",
      "State": "CO",
      "County": "Arapahoe County",
      "Zip": 80013,
      "Country": "US"
    },
    {
      "name": "Aurora - La Parquita Park",
      "address": "4041 S. Mission Parkway, Aurora CO 80013",
      "tennisCourts_courtIcon": "https://www.tennisdenver.com/assets/new_layout/courts-icon.jpg",
      "numberOfCourts": "2 Courts",
      "Latitude": 39.645189,
      "Longitude": -104.79647,
      "Accuracy Score": 1,
      "Accuracy Type": "range_interpolation",
      "Street": "S Mission Pkwy",
      "City": "Aurora",
      "State": "CO",
      "County": "Arapahoe County",
      "Zip": 80013,
      "Country": "US"
    },
    {
      "name": "Aurora - Meadow Hills Park",
      "address": "3650 S Dawson St., Aurora CO 80014",
      "tennisCourts_courtIcon": "https://www.tennisdenver.com/assets/new_layout/courts-icon.jpg",
      "numberOfCourts": "4 Courts",
      "Latitude": 39.649813,
      "Longitude": -104.818259,
      "Accuracy Score": 1,
      "Accuracy Type": "rooftop",
      "Street": "S Dawson St",
      "City": "Aurora",
      "State": "CO",
      "County": "Arapahoe County",
      "Zip": 80014,
      "Country": "US"
    },
    {
      "name": "Aurora - Meadowbrook Park",
      "address": "3054 S Laredo St., Aurora CO 80013",
      "tennisCourts_courtIcon": "https://www.tennisdenver.com/assets/new_layout/courts-icon.jpg",
      "numberOfCourts": "4 Courts",
      "Latitude": 39.660775,
      "Longitude": -104.798457,
      "Accuracy Score": 1,
      "Accuracy Type": "rooftop",
      "Street": "S Laredo St",
      "City": "Aurora",
      "State": "CO",
      "County": "Arapahoe County",
      "Zip": 80013,
      "Country": "US"
    },
    {
      "name": "Aurora - Pheasant Run Park",
      "address": "14971 Pheasant Run Parkway, Aurora CO 80015",
      "tennisCourts_courtIcon": "https://www.tennisdenver.com/assets/new_layout/courts-icon.jpg",
      "numberOfCourts": "2 Courts",
      "Latitude": 39.636433,
      "Longitude": -104.814389,
      "Accuracy Score": 1,
      "Accuracy Type": "range_interpolation",
      "Street": "Pheasant Run Pkwy",
      "City": "Aurora",
      "State": "CO",
      "County": "Arapahoe County",
      "Zip": 80015,
      "Country": "US"
    },
    {
      "name": "Aurora - Rangeview HS",
      "address": "17559 E. Iliff Ave., Aurora CO 80013",
      "tennisCourts_courtIcon": "https://www.tennisdenver.com/assets/new_layout/courts-icon.jpg",
      "numberOfCourts": "6 Courts",
      "Latitude": 39.674079,
      "Longitude": -104.780378,
      "Accuracy Score": 1,
      "Accuracy Type": "range_interpolation",
      "Street": "E Iliff Ave",
      "City": "Aurora",
      "State": "CO",
      "County": "Arapahoe County",
      "Zip": 80013,
      "Country": "US"
    },
    {
      "name": "Aurora - Regis Jesuit HS",
      "address": "6400 S. Lewiston Way, Aurora CO 80016",
      "tennisCourts_courtIcon": "https://www.tennisdenver.com/assets/new_layout/courts-icon.jpg",
      "numberOfCourts": "6 Courts",
      "Latitude": 39.600025,
      "Longitude": -104.799165,
      "Accuracy Score": 1,
      "Accuracy Type": "rooftop",
      "Street": "S Lewiston Way",
      "City": "Aurora",
      "State": "CO",
      "County": "Arapahoe County",
      "Zip": 80016,
      "Country": "US"
    },
    {
      "name": "Aurora - Smokey Hills HS",
      "address": "16100 E. Smoky Hill Rd., Aurora CO 80015",
      "tennisCourts_courtIcon": "https://www.tennisdenver.com/assets/new_layout/courts-icon.jpg",
      "numberOfCourts": "8 Courts",
      "Latitude": 39.62805,
      "Longitude": -104.800421,
      "Accuracy Score": 1,
      "Accuracy Type": "rooftop",
      "Street": "E Smoky Hill Rd",
      "City": "Aurora",
      "State": "CO",
      "County": "Arapahoe County",
      "Zip": 80015,
      "Country": "US"
    },
    {
      "name": "Aurora - Springhill Park",
      "address": "950 Telluride St., Aurora CO 80011",
      "tennisCourts_courtIcon": "https://www.tennisdenver.com/assets/new_layout/courts-icon.jpg",
      "numberOfCourts": "4 Courts",
      "Latitude": 39.731937,
      "Longitude": -104.781966,
      "Accuracy Score": 1,
      "Accuracy Type": "range_interpolation",
      "Street": "Telluride St",
      "City": "Aurora",
      "State": "CO",
      "County": "Arapahoe County",
      "Zip": 80011,
      "Country": "US"
    },
    {
      "name": "Aurora - Sunburst Park",
      "address": "4401 S. Memphis St., Aurora CO 80015",
      "tennisCourts_courtIcon": "https://www.tennisdenver.com/assets/new_layout/courts-icon.jpg",
      "numberOfCourts": "2 Courts",
      "Latitude": 39.636461,
      "Longitude": -104.799072,
      "Accuracy Score": 1,
      "Accuracy Type": "rooftop",
      "Street": "S Memphis St",
      "City": "Aurora",
      "State": "CO",
      "County": "Arapahoe County",
      "Zip": 80015,
      "Country": "US"
    },
    {
      "name": "Aurora - Utah Park",
      "address": "1800 S Peoria St., Aurora CO 80012",
      "tennisCourts_courtIcon": "https://www.tennisdenver.com/assets/new_layout/courts-icon.jpg",
      "numberOfCourts": "10 Courts",
      "Latitude": 39.684089,
      "Longitude": -104.846358,
      "Accuracy Score": 1,
      "Accuracy Type": "rooftop",
      "Street": "S Peoria St",
      "City": "Aurora",
      "State": "CO",
      "County": "Arapahoe County",
      "Zip": 80012,
      "Country": "US"
    },
    {
      "name": "Aurora - Village Green Park",
      "address": "1420 S Chambers Cir., Aurora CO 80012",
      "tennisCourts_courtIcon": "https://www.tennisdenver.com/assets/new_layout/courts-icon.jpg",
      "numberOfCourts": "2 Courts",
      "Latitude": 39.691196,
      "Longitude": -104.814863,
      "Accuracy Score": 1,
      "Accuracy Type": "range_interpolation",
      "Street": "S Chambers Cir",
      "City": "Aurora",
      "State": "CO",
      "County": "Arapahoe County",
      "Zip": 80012,
      "Country": "US"
    },
    {
      "name": "Centennial - Eaglecrest HS",
      "address": "5100 S Picadilly St, Centennial CO 80015",
      "tennisCourts_courtIcon": "https://www.tennisdenver.com/assets/new_layout/courts-icon.jpg",
      "numberOfCourts": "8 Courts",
      "Latitude": 39.625279,
      "Longitude": -104.735559,
      "Accuracy Score": 1,
      "Accuracy Type": "rooftop",
      "Street": "S Picadilly St",
      "City": "Aurora",
      "State": "CO",
      "County": "Arapahoe County",
      "Zip": 80015,
      "Country": "US"
    },
    {
      "name": "Denver - Ranum HS",
      "address": "2401 W. 80th Ave., Denver CO 80221",
      "tennisCourts_courtIcon": "https://www.tennisdenver.com/assets/new_layout/courts-icon.jpg",
      "numberOfCourts": "4 Courts",
      "Latitude": 39.84336,
      "Longitude": -105.01614,
      "Accuracy Score": 1,
      "Accuracy Type": "rooftop",
      "Street": "W 80th Ave",
      "City": "Sherrelwood",
      "State": "CO",
      "County": "Adams County",
      "Zip": 80221,
      "Country": "US"
    },
    {
      "name": "Arvada - Majestic View Park",
      "address": "8900 W 72nd Ave., Arvada CO 80004",
      "tennisCourts_courtIcon": "https://www.tennisdenver.com/assets/new_layout/courts-icon.jpg",
      "numberOfCourts": "4 Courts",
      "Latitude": 39.826966,
      "Longitude": -105.094246,
      "Accuracy Score": 0.9,
      "Accuracy Type": "range_interpolation",
      "Street": "W 72nd Ave",
      "City": "Arvada",
      "State": "CO",
      "County": "Jefferson County",
      "Zip": 80005,
      "Country": "US"
    },
    {
      "name": "Arvada - Rainbow Park",
      "address": "8191 Pomona Dr, Arvada Co 80005",
      "tennisCourts_courtIcon": "https://www.tennisdenver.com/assets/new_layout/courts-icon.jpg",
      "numberOfCourts": "2 Courts",
      "Latitude": 39.84593,
      "Longitude": -105.089851,
      "Accuracy Score": 1,
      "Accuracy Type": "rooftop",
      "Street": "Pomona Dr",
      "City": "Arvada",
      "State": "CO",
      "County": "Jefferson County",
      "Zip": 80005,
      "Country": "US"
    },
    {
      "name": "Boulder - Arapahoe Ridge",
      "address": "Eisenhower Dr. S. of Arapahoe, Boulder CO 80303",
      "tennisCourts_courtIcon": "https://www.tennisdenver.com/assets/new_layout/courts-icon.jpg",
      "numberOfCourts": "2 Courts",
      "Latitude": 40.010883,
      "Longitude": -105.234642,
      "Accuracy Score": 1,
      "Accuracy Type": "street_center",
      "Street": "Eisenhower Dr",
      "City": "Boulder",
      "State": "CO",
      "County": "Boulder County",
      "Zip": 80303,
      "Country": "US"
    },
    {
      "name": "Boulder - Baseline MS",
      "address": "700 20th Street, Boulder CO 80302",
      "tennisCourts_courtIcon": "https://www.tennisdenver.com/assets/new_layout/courts-icon.jpg",
      "numberOfCourts": "2 Courts",
      "Latitude": 40.001455,
      "Longitude": -105.266224,
      "Accuracy Score": 1,
      "Accuracy Type": "rooftop",
      "Street": "20th",
      "City": "Boulder",
      "State": "CO",
      "County": "Boulder County",
      "Zip": 80302,
      "Country": "US"
    },
    {
      "name": "Boulder - Boulder CC",
      "address": "7350 Clubhouse Rd., Boulder CO 80301",
      "tennisCourts_courtIcon": "https://www.tennisdenver.com/assets/new_layout/courts-icon.jpg",
      "numberOfCourts": "9 Courts",
      "Latitude": 40.062855,
      "Longitude": -105.184939,
      "Accuracy Score": 1,
      "Accuracy Type": "rooftop",
      "Street": "Clubhouse",
      "City": "Boulder",
      "State": "CO",
      "County": "Boulder County",
      "Zip": 80301,
      "Country": "US"
    },
    {
      "name": "Boulder - Burbank MS",
      "address": "290 Manhattan Dr., Boulder CO 80303",
      "tennisCourts_courtIcon": "https://www.tennisdenver.com/assets/new_layout/courts-icon.jpg",
      "numberOfCourts": "4 Courts",
      "Latitude": 39.994979,
      "Longitude": -105.228406,
      "Accuracy Score": 1,
      "Accuracy Type": "rooftop",
      "Street": "Manhattan",
      "City": "Boulder",
      "State": "CO",
      "County": "Boulder County",
      "Zip": 80303,
      "Country": "US"
    },
    {
      "name": "Boulder - Casey MS",
      "address": "2410 13th St., Boulder CO 80304",
      "tennisCourts_courtIcon": "https://www.tennisdenver.com/assets/new_layout/courts-icon.jpg",
      "numberOfCourts": "2 Courts",
      "Latitude": 40.023635,
      "Longitude": -105.279373,
      "Accuracy Score": 1,
      "Accuracy Type": "rooftop",
      "Street": "13th St",
      "City": "Boulder",
      "State": "CO",
      "County": "Boulder County",
      "Zip": 80304,
      "Country": "US"
    },
    {
      "name": "Boulder - Centennial MS",
      "address": "2205 Norwood Ave., Boulder CO 80304",
      "tennisCourts_courtIcon": "https://www.tennisdenver.com/assets/new_layout/courts-icon.jpg",
      "numberOfCourts": "8 Courts",
      "Latitude": 40.045277,
      "Longitude": -105.267541,
      "Accuracy Score": 1,
      "Accuracy Type": "rooftop",
      "Street": "Norwood",
      "City": "Boulder",
      "State": "CO",
      "County": "Boulder County",
      "Zip": 80304,
      "Country": "US"
    },
    {
      "name": "Boulder - Chautauqua Park",
      "address": "900 Baseline Rd., Boulder CO 80302",
      "tennisCourts_courtIcon": "https://www.tennisdenver.com/assets/new_layout/courts-icon.jpg",
      "numberOfCourts": "1 Courts",
      "Latitude": 40.000082,
      "Longitude": -105.280817,
      "Accuracy Score": 1,
      "Accuracy Type": "rooftop",
      "Street": "Baseline",
      "City": "Boulder",
      "State": "CO",
      "County": "Boulder County",
      "Zip": 80302,
      "Country": "US"
    },
    {
      "name": "Boulder - Columbine ES",
      "address": "20th Street and Glenwood Dr., Boulder CO 80304",
      "tennisCourts_courtIcon": "https://www.tennisdenver.com/assets/new_layout/courts-icon.jpg",
      "numberOfCourts": "2 Courts",
      "Latitude": 40.033303,
      "Longitude": -105.270385,
      "Accuracy Score": 1,
      "Accuracy Type": "intersection",
      "Street": "20th St",
      "City": "Boulder",
      "State": "CO",
      "County": "Boulder County",
      "Zip": 80304,
      "Country": "US"
    },
    {
      "name": "Boulder - East Boulder Com. Center",
      "address": "5660 Sioux Drive, Boulder CO 80303",
      "tennisCourts_courtIcon": "https://www.tennisdenver.com/assets/new_layout/courts-icon.jpg",
      "numberOfCourts": "4 Courts",
      "Latitude": 39.992012,
      "Longitude": -105.220001,
      "Accuracy Score": 1,
      "Accuracy Type": "rooftop",
      "Street": "Sioux",
      "City": "Boulder",
      "State": "CO",
      "County": "Boulder County",
      "Zip": 80303,
      "Country": "US"
    },
    {
      "name": "Boulder - Fairview HS",
      "address": "1515 Greenbriar, Boulder CO 80305",
      "tennisCourts_courtIcon": "https://www.tennisdenver.com/assets/new_layout/courts-icon.jpg",
      "numberOfCourts": "8 Courts",
      "Latitude": 39.972548,
      "Longitude": -105.244672,
      "Accuracy Score": 1,
      "Accuracy Type": "rooftop",
      "Street": "Greenbriar",
      "City": "Boulder",
      "State": "CO",
      "County": "Boulder County",
      "Zip": 80305,
      "Country": "US"
    },
    {
      "name": "Boulder - Flatiron Athletic Club",
      "address": "505 Thunderbird Dr., Boulder CO 80303",
      "tennisCourts_courtIcon": "https://www.tennisdenver.com/assets/new_layout/courts-icon.jpg",
      "numberOfCourts": "3 Courts",
      "Latitude": 39.996346,
      "Longitude": -105.232878,
      "Accuracy Score": 1,
      "Accuracy Type": "rooftop",
      "Street": "Thunderbird",
      "City": "Boulder",
      "State": "CO",
      "County": "Boulder County",
      "Zip": 80303,
      "Country": "US"
    },
    {
      "name": "Boulder - Knollwood Park",
      "address": "4th and Spruce, Boulder CO 80302",
      "tennisCourts_courtIcon": "https://www.tennisdenver.com/assets/new_layout/courts-icon.jpg",
      "numberOfCourts": "2 Courts",
      "Latitude": 40.016604,
      "Longitude": -105.291451,
      "Accuracy Score": 0.8,
      "Accuracy Type": "intersection",
      "Street": "4th St",
      "City": "Boulder",
      "State": "CO",
      "County": "Boulder County",
      "Zip": 80302,
      "Country": "US"
    },
    {
      "name": "Boulder - Martin Park",
      "address": "36th and Eastman, Boulder CO 80305",
      "tennisCourts_courtIcon": "https://www.tennisdenver.com/assets/new_layout/courts-icon.jpg",
      "numberOfCourts": "2 Courts",
      "Latitude": 39.9891,
      "Longitude": -105.252137,
      "Accuracy Score": 0.7,
      "Accuracy Type": "intersection",
      "Street": "Eastman Ave",
      "City": "Boulder",
      "State": "CO",
      "County": "Boulder County",
      "Zip": 80305,
      "Country": "US"
    },
    {
      "name": "Boulder - Meadows Swim and Tennis Club",
      "address": "5555 Racquet Lane, Boulder CO 80303",
      "tennisCourts_courtIcon": "https://www.tennisdenver.com/assets/new_layout/courts-icon.jpg",
      "numberOfCourts": "11 Courts",
      "Latitude": 40.003625,
      "Longitude": -105.224166,
      "Accuracy Score": 1,
      "Accuracy Type": "rooftop",
      "Street": "Racquet",
      "City": "Boulder",
      "State": "CO",
      "County": "Boulder County",
      "Zip": 80303,
      "Country": "US"
    },
    {
      "name": "Boulder - Millennium Harvest House Tennis",
      "address": "1345 28th Street, Boulder CO 80302",
      "tennisCourts_courtIcon": "",
      "numberOfCourts": "Tennis store",
      "Latitude": 40.012142,
      "Longitude": -105.260566,
      "Accuracy Score": 1,
      "Accuracy Type": "rooftop",
      "Street": "28th",
      "City": "Boulder",
      "State": "CO",
      "County": "Boulder County",
      "Zip": 80302,
      "Country": "US"
    },
    {
      "name": "Boulder - North Boulder Rec. Center",
      "address": "3170 Broadway, Boulder CO 80304",
      "tennisCourts_courtIcon": "https://www.tennisdenver.com/assets/new_layout/courts-icon.jpg",
      "numberOfCourts": "4 Courts",
      "Latitude": 40.032395,
      "Longitude": -105.280405,
      "Accuracy Score": 1,
      "Accuracy Type": "rooftop",
      "Street": "Broadway",
      "City": "Boulder",
      "State": "CO",
      "County": "Boulder County",
      "Zip": 80304,
      "Country": "US"
    },
    {
      "name": "Boulder - Palo Park",
      "address": "N. 30th and Redwood, Boulder CO 80301",
      "tennisCourts_courtIcon": "https://www.tennisdenver.com/assets/new_layout/courts-icon.jpg",
      "numberOfCourts": "2 Courts",
      "Latitude": 40.048826,
      "Longitude": -105.254927,
      "Accuracy Score": 0.8,
      "Accuracy Type": "intersection",
      "Street": "30th St",
      "City": "Boulder",
      "State": "CO",
      "County": "Boulder County",
      "Zip": 80301,
      "Country": "US"
    },
    {
      "name": "Boulder - Platt MS",
      "address": "6096 Baseline Rd., Boulder CO 80303",
      "tennisCourts_courtIcon": "https://www.tennisdenver.com/assets/new_layout/courts-icon.jpg",
      "numberOfCourts": "2 Courts",
      "Latitude": 40.003121,
      "Longitude": -105.209499,
      "Accuracy Score": 1,
      "Accuracy Type": "rooftop",
      "Street": "Baseline",
      "City": "Boulder",
      "State": "CO",
      "County": "Boulder County",
      "Zip": 80303,
      "Country": "US"
    },
    {
      "name": "Boulder - Rocky Mountain Tennis Center",
      "address": "924 Hawthorne Avenue, Boulder CO 80304",
      "tennisCourts_courtIcon": "https://www.tennisdenver.com/assets/new_layout/courts-icon.jpg",
      "numberOfCourts": "4 Courts",
      "Latitude": 40.034757,
      "Longitude": -105.284425,
      "Accuracy Score": 1,
      "Accuracy Type": "rooftop",
      "Street": "Hawthorn",
      "City": "Boulder",
      "State": "CO",
      "County": "Boulder County",
      "Zip": 80304,
      "Country": "US"
    },
    {
      "name": "Boulder - South Boulder Rec. Center",
      "address": "1360 Gillaspie, Boulder CO 80305",
      "tennisCourts_courtIcon": "https://www.tennisdenver.com/assets/new_layout/courts-icon.jpg",
      "numberOfCourts": "4 Courts",
      "Latitude": 39.974524,
      "Longitude": -105.2486,
      "Accuracy Score": 1,
      "Accuracy Type": "rooftop",
      "Street": "Gillaspie",
      "City": "Boulder",
      "State": "CO",
      "County": "Boulder County",
      "Zip": 80305,
      "Country": "US"
    },
    {
      "name": "Boulder - University of Colorado",
      "address": "Broadway at Baseline Rd., Boulder CO 80302",
      "tennisCourts_courtIcon": "https://www.tennisdenver.com/assets/new_layout/courts-icon.jpg",
      "numberOfCourts": "12 Courts",
      "Latitude": 40.000081,
      "Longitude": -105.268785,
      "Accuracy Score": 0.39,
      "Accuracy Type": "intersection",
      "Street": "Baseline Rd",
      "City": "Boulder",
      "State": "CO",
      "County": "Boulder County",
      "Zip": 80302,
      "Country": "US"
    },
    {
      "name": "Boulder - Williams Village Field",
      "address": "3300 Baseline Rd, Boulder CO 80303",
      "tennisCourts_courtIcon": "https://www.tennisdenver.com/assets/new_layout/courts-icon.jpg",
      "numberOfCourts": "4 Courts",
      "Latitude": 39.99993,
      "Longitude": -105.24978,
      "Accuracy Score": 1,
      "Accuracy Type": "rooftop",
      "Street": "Baseline",
      "City": "Boulder",
      "State": "CO",
      "County": "Boulder County",
      "Zip": 80303,
      "Country": "US"
    },
    {
      "name": "Broomfield - Community Park",
      "address": "2nd Ave. & Main St., Broomfield CO 80020",
      "tennisCourts_courtIcon": "https://www.tennisdenver.com/assets/new_layout/courts-icon.jpg",
      "numberOfCourts": "4 Courts",
      "Latitude": 39.738367,
      "Longitude": -104.323734,
      "Accuracy Score": 0.7,
      "Accuracy Type": "intersection",
      "Street": "Co Rd 2",
      "City": "Strasburg",
      "State": "CO",
      "County": "Adams County",
      "Zip": 80136,
      "Country": "US"
    },
    {
      "name": "Broomfield - West Park",
      "address": "555 Eldorado Blvd, Broomfield Co 80020",
      "tennisCourts_courtIcon": "https://www.tennisdenver.com/assets/new_layout/courts-icon.jpg",
      "numberOfCourts": "2 Courts",
      "Latitude": 39.922398,
      "Longitude": -105.125995,
      "Accuracy Score": 0.9,
      "Accuracy Type": "rooftop",
      "Street": "Eldorado Blvd",
      "City": "Broomfield",
      "State": "CO",
      "County": "Broomfield County",
      "Zip": 80021,
      "Country": "US"
    },
    {
      "name": "Broomfield - Zangs Spur Park",
      "address": "2201 W 10th Ave., Broomfield CO 80020",
      "tennisCourts_courtIcon": "https://www.tennisdenver.com/assets/new_layout/courts-icon.jpg",
      "numberOfCourts": "2 Courts",
      "Latitude": 39.930856,
      "Longitude": -105.092956,
      "Accuracy Score": 0.5,
      "Accuracy Type": "rooftop",
      "Street": "W 10th Ave",
      "City": "Broomfield",
      "State": "CO",
      "County": "Broomfield County",
      "Zip": 80020,
      "Country": "US"
    },
    {
      "name": "Lafayette - Lamont Does Park",
      "address": "500 E South Boulder Rd., Lafayette CO 80026",
      "tennisCourts_courtIcon": "https://www.tennisdenver.com/assets/new_layout/courts-icon.jpg",
      "numberOfCourts": "2 Courts",
      "Latitude": 39.986746,
      "Longitude": -105.086906,
      "Accuracy Score": 1,
      "Accuracy Type": "range_interpolation",
      "Street": "E South Boulder Rd",
      "City": "Lafayette",
      "State": "CO",
      "County": "Boulder County",
      "Zip": 80026,
      "Country": "US"
    },
    {
      "name": "Louisville - Recreational Center",
      "address": "900 Via Appia Way, Louisville CO 80027",
      "tennisCourts_courtIcon": "https://www.tennisdenver.com/assets/new_layout/courts-icon.jpg",
      "numberOfCourts": "4 Courts",
      "Latitude": 39.973504,
      "Longitude": -105.16254,
      "Accuracy Score": 1,
      "Accuracy Type": "range_interpolation",
      "Street": "Via Appia Way",
      "City": "Louisville",
      "State": "CO",
      "County": "Boulder County",
      "Zip": 80027,
      "Country": "US"
    },
    {
      "name": "Thorton - East Lake Park",
      "address": "E 124th Ave and Fillmore Ct, Thorton CO 80241",
      "tennisCourts_courtIcon": "https://www.tennisdenver.com/assets/new_layout/courts-icon.jpg",
      "numberOfCourts": "6 Courts",
      "Latitude": 39.92116,
      "Longitude": -104.952087,
      "Accuracy Score": 0.82,
      "Accuracy Type": "intersection",
      "Street": "E 124th Ave",
      "City": "Denver",
      "State": "CO",
      "County": "Adams County",
      "Zip": 80241,
      "Country": "US"
    },
    {
      "name": "Westminster - Bishop Square Park",
      "address": "8150 Hooker St., Westminster CO 80031",
      "tennisCourts_courtIcon": "https://www.tennisdenver.com/assets/new_layout/courts-icon.jpg",
      "numberOfCourts": "2 Courts",
      "Latitude": 39.844442,
      "Longitude": -105.027512,
      "Accuracy Score": 1,
      "Accuracy Type": "rooftop",
      "Street": "Hooker St",
      "City": "Westminster",
      "State": "CO",
      "County": "Adams County",
      "Zip": 80031,
      "Country": "US"
    },
    {
      "name": "Westminster - Countryside Park",
      "address": "10470 Oak St., Westminster CO 80021",
      "tennisCourts_courtIcon": "https://www.tennisdenver.com/assets/new_layout/courts-icon.jpg",
      "numberOfCourts": "4 Courts",
      "Latitude": 39.886389,
      "Longitude": -105.118385,
      "Accuracy Score": 1,
      "Accuracy Type": "rooftop",
      "Street": "Oak St",
      "City": "Broomfield",
      "State": "CO",
      "County": "Jefferson County",
      "Zip": 80021,
      "Country": "US"
    },
    {
      "name": "Westminster - Kings Mill Park",
      "address": "9018 Field St, Westminster CO 80021",
      "tennisCourts_courtIcon": "https://www.tennisdenver.com/assets/new_layout/courts-icon.jpg",
      "numberOfCourts": "2 Courts",
      "Latitude": 39.86004,
      "Longitude": -105.097795,
      "Accuracy Score": 1,
      "Accuracy Type": "rooftop",
      "Street": "Field St",
      "City": "Broomfield",
      "State": "CO",
      "County": "Jefferson County",
      "Zip": 80021,
      "Country": "US"
    },
    {
      "name": "Westminster - Municipal Park",
      "address": "3025 W. 76th Ave., Westminster CO 80030",
      "tennisCourts_courtIcon": "https://www.tennisdenver.com/assets/new_layout/courts-icon.jpg",
      "numberOfCourts": "2 Courts",
      "Latitude": 39.83523,
      "Longitude": -105.025766,
      "Accuracy Score": 1,
      "Accuracy Type": "rooftop",
      "Street": "W 76th Ave",
      "City": "Westminster",
      "State": "CO",
      "County": "Adams County",
      "Zip": 80030,
      "Country": "US"
    },
    {
      "name": "Westminster - Standley Lake HS",
      "address": "9300 W. 104th Ave., Westminster CO 80021",
      "tennisCourts_courtIcon": "https://www.tennisdenver.com/assets/new_layout/courts-icon.jpg",
      "numberOfCourts": "4 Courts",
      "Latitude": 39.884044,
      "Longitude": -105.099718,
      "Accuracy Score": 1,
      "Accuracy Type": "rooftop",
      "Street": "W 104th Ave",
      "City": "Broomfield",
      "State": "CO",
      "County": "Jefferson County",
      "Zip": 80021,
      "Country": "US"
    },
    {
      "name": "Westminster - Tennyson Knolls",
      "address": "5000 W 62nd Pl., Westminster CO 80003",
      "tennisCourts_courtIcon": "https://www.tennisdenver.com/assets/new_layout/courts-icon.jpg",
      "numberOfCourts": "2 Courts",
      "Latitude": 39.809911,
      "Longitude": -105.049622,
      "Accuracy Score": 1,
      "Accuracy Type": "range_interpolation",
      "Street": "W 62nd Pl",
      "City": "Arvada",
      "State": "CO",
      "County": "Adams County",
      "Zip": 80003,
      "Country": "US"
    },
    {
      "name": "Westminster - Westminster HS",
      "address": "4276 W. 68th Ave., Westminster CO 80030",
      "tennisCourts_courtIcon": "https://www.tennisdenver.com/assets/new_layout/courts-icon.jpg",
      "numberOfCourts": "4 Courts",
      "Latitude": 39.82344,
      "Longitude": -105.040342,
      "Accuracy Score": 1,
      "Accuracy Type": "rooftop",
      "Street": "W 68th Ave",
      "City": "Westminster",
      "State": "CO",
      "County": "Adams County",
      "Zip": 80030,
      "Country": "US"
    }
   ]
}
